{
"type": "FeatureCollection",
"name": "clients_bruts",
"crs": { "type": "name", "properties": { "name": "urn:ogc:def:crs:OGC:1.3:CRS84" } },
"features": [
{ "type": "Feature", "properties": { "client_id": "CLI00001", "adresse": "Rue Kant 59000 Lille", "commune": "Lille", "code_postal": "59000", "longitude": 3.024722, "latitude": 50.634315, "frequence_achat": 20, "panier_moyen": 30.5, "mode_transport": "marche", "segment_theorique": 1 }, "geometry": { "type": "Point", "coordinates": [ 3.024722, 50.634315 ] } },
{ "type": "Feature", "properties": { "client_id": "CLI00002", "adresse": "Rue Davy 59000 Lille", "commune": "Lille", "code_postal": "59000", "longitude": 3.043455, "latitude": 50.622633, "frequence_achat": 12, "panier_moyen": 29.68, "mode_transport": "transport", "segment_theorique": 1 }, "geometry": { "type": "Point", "coordinates": [ 3.043455, 50.622633 ] } },
{ "type": "Feature", "properties": { "client_id": "CLI00003", "adresse": "Rue Basse 59800 Lille", "commune": "Lille", "code_postal": "59800", "longitude": 3.061806, "latitude": 50.638903, "frequence_achat": 18, "panier_moyen": 38.78, "mode_transport": "marche", "segment_theorique": 1 }, "geometry": { "type": "Point", "coordinates": [ 3.061806, 50.638903 ] } },
{ "type": "Feature", "properties": { "client_id": "CLI00004", "adresse": "Rue Duhem 59000 Lille", "commune": "Lille", "code_postal": "59000", "longitude": 3.042512, "latitude": 50.622763, "frequence_achat": 15, "panier_moyen": 46.24, "mode_transport": "marche", "segment_theorique": 1 }, "geometry": { "type": "Point", "coordinates": [ 3.042512, 50.622763 ] } },
{ "type": "Feature", "properties": { "client_id": "CLI00005", "adresse": "Rue Pline 59000 Lille", "commune": "Lille", "code_postal": "59000", "longitude": 3.064172, "latitude": 50.611798, "frequence_achat": 9, "panier_moyen": 46.66, "mode_transport": "marche", "segment_theorique": 1 }, "geometry": { "type": "Point", "coordinates": [ 3.064172, 50.611798 ] } },
{ "type": "Feature", "properties": { "client_id": "CLI00006", "adresse": "Rue Arago 59000 Lille", "commune": "Lille", "code_postal": "59000", "longitude": 3.060631, "latitude": 50.620509, "frequence_achat": 9, "panier_moyen": 30.45, "mode_transport": "transport", "segment_theorique": 1 }, "geometry": { "type": "Point", "coordinates": [ 3.060631, 50.620509 ] } },
{ "type": "Feature", "properties": { "client_id": "CLI00007", "adresse": "Rue Leuty 59800 Lille", "commune": "Lille", "code_postal": "59800", "longitude": 3.09599, "latitude": 50.624674, "frequence_achat": 19, "panier_moyen": 43.35, "mode_transport": "marche", "segment_theorique": 1 }, "geometry": { "type": "Point", "coordinates": [ 3.09599, 50.624674 ] } },
{ "type": "Feature", "properties": { "client_id": "CLI00008", "adresse": "Rue Frémy 59800 Lille", "commune": "Lille", "code_postal": "59800", "longitude": 3.085351, "latitude": 50.631574, "frequence_achat": 16, "panier_moyen": 33.74, "mode_transport": "marche", "segment_theorique": 1 }, "geometry": { "type": "Point", "coordinates": [ 3.085351, 50.631574 ] } },
{ "type": "Feature", "properties": { "client_id": "CLI00009", "adresse": "Rue Patou 59800 Lille", "commune": "Lille", "code_postal": "59800", "longitude": 3.05134, "latitude": 50.635508, "frequence_achat": 17, "panier_moyen": 26.4, "mode_transport": "velo", "segment_theorique": 1 }, "geometry": { "type": "Point", "coordinates": [ 3.05134, 50.635508 ] } },
{ "type": "Feature", "properties": { "client_id": "CLI00010", "adresse": "Rue Auber 59000 Lille", "commune": "Lille", "code_postal": "59000", "longitude": 3.04176, "latitude": 50.630378, "frequence_achat": 22, "panier_moyen": 38.68, "mode_transport": "transport", "segment_theorique": 1 }, "geometry": { "type": "Point", "coordinates": [ 3.04176, 50.630378 ] } },
{ "type": "Feature", "properties": { "client_id": "CLI00011", "adresse": "Rue Bohin 59800 Lille", "commune": "Lille", "code_postal": "59800", "longitude": 3.096529, "latitude": 50.631771, "frequence_achat": 10, "panier_moyen": 36.47, "mode_transport": "transport", "segment_theorique": 1 }, "geometry": { "type": "Point", "coordinates": [ 3.096529, 50.631771 ] } },
{ "type": "Feature", "properties": { "client_id": "CLI00012", "adresse": "Rue Royale 59800 Lille", "commune": "Lille", "code_postal": "59800", "longitude": 3.056587, "latitude": 50.641846, "frequence_achat": 16, "panier_moyen": 26.39, "mode_transport": "transport", "segment_theorique": 1 }, "geometry": { "type": "Point", "coordinates": [ 3.056587, 50.641846 ] } },
{ "type": "Feature", "properties": { "client_id": "CLI00013", "adresse": "Rue Becker 59160 Lille", "commune": "Lille", "code_postal": "59160", "longitude": 3.018538, "latitude": 50.638445, "frequence_achat": 12, "panier_moyen": 38.51, "mode_transport": "velo", "segment_theorique": 1 }, "geometry": { "type": "Point", "coordinates": [ 3.018538, 50.638445 ] } },
{ "type": "Feature", "properties": { "client_id": "CLI00014", "adresse": "Rue Kléber 59260 Lille", "commune": "Lille", "code_postal": "59260", "longitude": 3.113661, "latitude": 50.627055, "frequence_achat": 16, "panier_moyen": 53.97, "mode_transport": "marche", "segment_theorique": 1 }, "geometry": { "type": "Point", "coordinates": [ 3.113661, 50.627055 ] } },
{ "type": "Feature", "properties": { "client_id": "CLI00015", "adresse": "Rue Dordin 59260 Lille", "commune": "Lille", "code_postal": "59260", "longitude": 3.099937, "latitude": 50.626517, "frequence_achat": 16, "panier_moyen": 25.48, "mode_transport": "transport", "segment_theorique": 1 }, "geometry": { "type": "Point", "coordinates": [ 3.099937, 50.626517 ] } },
{ "type": "Feature", "properties": { "client_id": "CLI00016", "adresse": "Rue Manuel 59000 Lille", "commune": "Lille", "code_postal": "59000", "longitude": 3.054572, "latitude": 50.626874, "frequence_achat": 19, "panier_moyen": 38.2, "mode_transport": "marche", "segment_theorique": 1 }, "geometry": { "type": "Point", "coordinates": [ 3.054572, 50.626874 ] } },
{ "type": "Feature", "properties": { "client_id": "CLI00017", "adresse": "Rue Mexico 59000 Lille", "commune": "Lille", "code_postal": "59000", "longitude": 3.043275, "latitude": 50.621619, "frequence_achat": 20, "panier_moyen": 50.0, "mode_transport": "marche", "segment_theorique": 1 }, "geometry": { "type": "Point", "coordinates": [ 3.043275, 50.621619 ] } },
{ "type": "Feature", "properties": { "client_id": "CLI00018", "adresse": "Rue Pascal 59800 Lille", "commune": "Lille", "code_postal": "59800", "longitude": 3.0846, "latitude": 50.639616, "frequence_achat": 8, "panier_moyen": 32.76, "mode_transport": "marche", "segment_theorique": 1 }, "geometry": { "type": "Point", "coordinates": [ 3.0846, 50.639616 ] } },
{ "type": "Feature", "properties": { "client_id": "CLI00019", "adresse": "Rue Balzac 59000 Lille", "commune": "Lille", "code_postal": "59000", "longitude": 3.047903, "latitude": 50.613841, "frequence_achat": 9, "panier_moyen": 37.75, "mode_transport": "velo", "segment_theorique": 1 }, "geometry": { "type": "Point", "coordinates": [ 3.047903, 50.613841 ] } },
{ "type": "Feature", "properties": { "client_id": "CLI00020", "adresse": "Rue Simons 59000 Lille", "commune": "Lille", "code_postal": "59000", "longitude": 3.047277, "latitude": 50.614921, "frequence_achat": 11, "panier_moyen": 30.55, "mode_transport": "marche", "segment_theorique": 1 }, "geometry": { "type": "Point", "coordinates": [ 3.047277, 50.614921 ] } },
{ "type": "Feature", "properties": { "client_id": "CLI00021", "adresse": "Rue Bernos 59800 Lille", "commune": "Lille", "code_postal": "59800", "longitude": 3.087615, "latitude": 50.633359, "frequence_achat": 17, "panier_moyen": 38.49, "mode_transport": "transport", "segment_theorique": 1 }, "geometry": { "type": "Point", "coordinates": [ 3.087615, 50.633359 ] } },
{ "type": "Feature", "properties": { "client_id": "CLI00022", "adresse": "Rue Newton 59000 Lille", "commune": "Lille", "code_postal": "59000", "longitude": 3.043413, "latitude": 50.622139, "frequence_achat": 11, "panier_moyen": 42.94, "mode_transport": "marche", "segment_theorique": 1 }, "geometry": { "type": "Point", "coordinates": [ 3.043413, 50.622139 ] } },
{ "type": "Feature", "properties": { "client_id": "CLI00023", "adresse": "Rue Gounod 59800 Lille", "commune": "Lille", "code_postal": "59800", "longitude": 3.089035, "latitude": 50.641307, "frequence_achat": 15, "panier_moyen": 42.11, "mode_transport": "transport", "segment_theorique": 1 }, "geometry": { "type": "Point", "coordinates": [ 3.089035, 50.641307 ] } },
{ "type": "Feature", "properties": { "client_id": "CLI00024", "adresse": "Rue Buffon 59000 Lille", "commune": "Lille", "code_postal": "59000", "longitude": 3.067924, "latitude": 50.618217, "frequence_achat": 21, "panier_moyen": 34.76, "mode_transport": "velo", "segment_theorique": 1 }, "geometry": { "type": "Point", "coordinates": [ 3.067924, 50.618217 ] } },
{ "type": "Feature", "properties": { "client_id": "CLI00025", "adresse": "Rue Doudin 59800 Lille", "commune": "Lille", "code_postal": "59800", "longitude": 3.059353, "latitude": 50.640012, "frequence_achat": 9, "panier_moyen": 41.19, "mode_transport": "marche", "segment_theorique": 1 }, "geometry": { "type": "Point", "coordinates": [ 3.059353, 50.640012 ] } },
{ "type": "Feature", "properties": { "client_id": "CLI00026", "adresse": "Rue Chappe 59800 Lille", "commune": "Lille", "code_postal": "59800", "longitude": 3.091966, "latitude": 50.639485, "frequence_achat": 16, "panier_moyen": 33.43, "mode_transport": "velo", "segment_theorique": 1 }, "geometry": { "type": "Point", "coordinates": [ 3.091966, 50.639485 ] } },
{ "type": "Feature", "properties": { "client_id": "CLI00027", "adresse": "Rue Branly 59800 Lille", "commune": "Lille", "code_postal": "59800", "longitude": 3.088747, "latitude": 50.64435, "frequence_achat": 16, "panier_moyen": 33.89, "mode_transport": "velo", "segment_theorique": 1 }, "geometry": { "type": "Point", "coordinates": [ 3.088747, 50.64435 ] } },
{ "type": "Feature", "properties": { "client_id": "CLI00028", "adresse": "Rue Kepler 59800 Lille", "commune": "Lille", "code_postal": "59800", "longitude": 3.085418, "latitude": 50.636084, "frequence_achat": 16, "panier_moyen": 54.61, "mode_transport": "marche", "segment_theorique": 1 }, "geometry": { "type": "Point", "coordinates": [ 3.085418, 50.636084 ] } },
{ "type": "Feature", "properties": { "client_id": "CLI00029", "adresse": "Rue Halévy 59000 Lille", "commune": "Lille", "code_postal": "59000", "longitude": 3.037083, "latitude": 50.625102, "frequence_achat": 19, "panier_moyen": 33.8, "mode_transport": "transport", "segment_theorique": 1 }, "geometry": { "type": "Point", "coordinates": [ 3.037083, 50.625102 ] } },
{ "type": "Feature", "properties": { "client_id": "CLI00030", "adresse": "Rue Ferrer 59260 Lille", "commune": "Lille", "code_postal": "59260", "longitude": 3.099554, "latitude": 50.624209, "frequence_achat": 10, "panier_moyen": 46.21, "mode_transport": "marche", "segment_theorique": 1 }, "geometry": { "type": "Point", "coordinates": [ 3.099554, 50.624209 ] } },
{ "type": "Feature", "properties": { "client_id": "CLI00031", "adresse": "Rue Porret 59800 Lille", "commune": "Lille", "code_postal": "59800", "longitude": 3.090399, "latitude": 50.630924, "frequence_achat": 8, "panier_moyen": 43.18, "mode_transport": "velo", "segment_theorique": 1 }, "geometry": { "type": "Point", "coordinates": [ 3.090399, 50.630924 ] } },
{ "type": "Feature", "properties": { "client_id": "CLI00032", "adresse": "Rue Rubens 59800 Lille", "commune": "Lille", "code_postal": "59800", "longitude": 3.095958, "latitude": 50.63179, "frequence_achat": 17, "panier_moyen": 28.48, "mode_transport": "transport", "segment_theorique": 1 }, "geometry": { "type": "Point", "coordinates": [ 3.095958, 50.63179 ] } },
{ "type": "Feature", "properties": { "client_id": "CLI00033", "adresse": "Rue Delvau 59800 Lille", "commune": "Lille", "code_postal": "59800", "longitude": 3.10023, "latitude": 50.6351, "frequence_achat": 15, "panier_moyen": 38.48, "mode_transport": "transport", "segment_theorique": 1 }, "geometry": { "type": "Point", "coordinates": [ 3.10023, 50.6351 ] } },
{ "type": "Feature", "properties": { "client_id": "CLI00034", "adresse": "Rue Mermoz 59000 Lille", "commune": "Lille", "code_postal": "59000", "longitude": 3.02337, "latitude": 50.628759, "frequence_achat": 14, "panier_moyen": 34.33, "mode_transport": "marche", "segment_theorique": 1 }, "geometry": { "type": "Point", "coordinates": [ 3.02337, 50.628759 ] } },
{ "type": "Feature", "properties": { "client_id": "CLI00035", "adresse": "Rue Helman 59800 Lille", "commune": "Lille", "code_postal": "59800", "longitude": 3.094671, "latitude": 50.64957, "frequence_achat": 10, "panier_moyen": 42.74, "mode_transport": "marche", "segment_theorique": 1 }, "geometry": { "type": "Point", "coordinates": [ 3.094671, 50.64957 ] } },
{ "type": "Feature", "properties": { "client_id": "CLI00036", "adresse": "Rue Colbert 59800 Lille", "commune": "Lille", "code_postal": "59800", "longitude": 3.044527, "latitude": 50.630746, "frequence_achat": 10, "panier_moyen": 39.17, "mode_transport": "marche", "segment_theorique": 1 }, "geometry": { "type": "Point", "coordinates": [ 3.044527, 50.630746 ] } },
{ "type": "Feature", "properties": { "client_id": "CLI00037", "adresse": "Grande Rue 59100 Roubaix", "commune": "Roubaix", "code_postal": "59100", "longitude": 3.186605, "latitude": 50.693793, "frequence_achat": 21, "panier_moyen": 50.47, "mode_transport": "marche", "segment_theorique": 1 }, "geometry": { "type": "Point", "coordinates": [ 3.186605, 50.693793 ] } },
{ "type": "Feature", "properties": { "client_id": "CLI00038", "adresse": "Rue Watt 59100 Roubaix", "commune": "Roubaix", "code_postal": "59100", "longitude": 3.160149, "latitude": 50.686985, "frequence_achat": 14, "panier_moyen": 48.13, "mode_transport": "velo", "segment_theorique": 1 }, "geometry": { "type": "Point", "coordinates": [ 3.160149, 50.686985 ] } },
{ "type": "Feature", "properties": { "client_id": "CLI00039", "adresse": "Rue Nain 59100 Roubaix", "commune": "Roubaix", "code_postal": "59100", "longitude": 3.170427, "latitude": 50.693445, "frequence_achat": 16, "panier_moyen": 46.32, "mode_transport": "velo", "segment_theorique": 1 }, "geometry": { "type": "Point", "coordinates": [ 3.170427, 50.693445 ] } },
{ "type": "Feature", "properties": { "client_id": "CLI00040", "adresse": "Rue Miln 59100 Roubaix", "commune": "Roubaix", "code_postal": "59100", "longitude": 3.165402, "latitude": 50.689376, "frequence_achat": 19, "panier_moyen": 28.24, "mode_transport": "marche", "segment_theorique": 1 }, "geometry": { "type": "Point", "coordinates": [ 3.165402, 50.689376 ] } },
{ "type": "Feature", "properties": { "client_id": "CLI00041", "adresse": "Rue Bell 59100 Roubaix", "commune": "Roubaix", "code_postal": "59100", "longitude": 3.154873, "latitude": 50.687671, "frequence_achat": 14, "panier_moyen": 39.26, "mode_transport": "marche", "segment_theorique": 1 }, "geometry": { "type": "Point", "coordinates": [ 3.154873, 50.687671 ] } },
{ "type": "Feature", "properties": { "client_id": "CLI00042", "adresse": "Rue Hoche 59100 Roubaix", "commune": "Roubaix", "code_postal": "59100", "longitude": 3.19806, "latitude": 50.688662, "frequence_achat": 11, "panier_moyen": 52.23, "mode_transport": "velo", "segment_theorique": 1 }, "geometry": { "type": "Point", "coordinates": [ 3.19806, 50.688662 ] } },
{ "type": "Feature", "properties": { "client_id": "CLI00043", "adresse": "Rue Monge 59100 Roubaix", "commune": "Roubaix", "code_postal": "59100", "longitude": 3.188892, "latitude": 50.690379, "frequence_achat": 20, "panier_moyen": 41.2, "mode_transport": "marche", "segment_theorique": 1 }, "geometry": { "type": "Point", "coordinates": [ 3.188892, 50.690379 ] } },
{ "type": "Feature", "properties": { "client_id": "CLI00044", "adresse": "Rue Puget 59100 Roubaix", "commune": "Roubaix", "code_postal": "59100", "longitude": 3.181355, "latitude": 50.674725, "frequence_achat": 20, "panier_moyen": 27.31, "mode_transport": "marche", "segment_theorique": 1 }, "geometry": { "type": "Point", "coordinates": [ 3.181355, 50.674725 ] } },
{ "type": "Feature", "properties": { "client_id": "CLI00045", "adresse": "Rue Soult 59100 Roubaix", "commune": "Roubaix", "code_postal": "59100", "longitude": 3.197686, "latitude": 50.688124, "frequence_achat": 13, "panier_moyen": 51.41, "mode_transport": "marche", "segment_theorique": 1 }, "geometry": { "type": "Point", "coordinates": [ 3.197686, 50.688124 ] } },
{ "type": "Feature", "properties": { "client_id": "CLI00046", "adresse": "Rue Volta 59100 Roubaix", "commune": "Roubaix", "code_postal": "59100", "longitude": 3.188559, "latitude": 50.680411, "frequence_achat": 21, "panier_moyen": 44.0, "mode_transport": "velo", "segment_theorique": 1 }, "geometry": { "type": "Point", "coordinates": [ 3.188559, 50.680411 ] } },
{ "type": "Feature", "properties": { "client_id": "CLI00047", "adresse": "Rue Payen 59100 Roubaix", "commune": "Roubaix", "code_postal": "59100", "longitude": 3.17718, "latitude": 50.678839, "frequence_achat": 19, "panier_moyen": 31.55, "mode_transport": "transport", "segment_theorique": 1 }, "geometry": { "type": "Point", "coordinates": [ 3.17718, 50.678839 ] } },
{ "type": "Feature", "properties": { "client_id": "CLI00048", "adresse": "Rue Ingres 59100 Roubaix", "commune": "Roubaix", "code_postal": "59100", "longitude": 3.181164, "latitude": 50.677611, "frequence_achat": 21, "panier_moyen": 41.18, "mode_transport": "velo", "segment_theorique": 1 }, "geometry": { "type": "Point", "coordinates": [ 3.181164, 50.677611 ] } },
{ "type": "Feature", "properties": { "client_id": "CLI00049", "adresse": "Rue Rubens 59100 Roubaix", "commune": "Roubaix", "code_postal": "59100", "longitude": 3.185747, "latitude": 50.674144, "frequence_achat": 19, "panier_moyen": 35.69, "mode_transport": "transport", "segment_theorique": 1 }, "geometry": { "type": "Point", "coordinates": [ 3.185747, 50.674144 ] } },
{ "type": "Feature", "properties": { "client_id": "CLI00050", "adresse": "Rue Cuvier 59100 Roubaix", "commune": "Roubaix", "code_postal": "59100", "longitude": 3.156641, "latitude": 50.696887, "frequence_achat": 8, "panier_moyen": 31.84, "mode_transport": "transport", "segment_theorique": 1 }, "geometry": { "type": "Point", "coordinates": [ 3.156641, 50.696887 ] } },
{ "type": "Feature", "properties": { "client_id": "CLI00051", "adresse": "Rue Vauban 59100 Roubaix", "commune": "Roubaix", "code_postal": "59100", "longitude": 3.166193, "latitude": 50.683322, "frequence_achat": 11, "panier_moyen": 35.58, "mode_transport": "velo", "segment_theorique": 1 }, "geometry": { "type": "Point", "coordinates": [ 3.166193, 50.683322 ] } },
{ "type": "Feature", "properties": { "client_id": "CLI00052", "adresse": "Rue Desaix 59100 Roubaix", "commune": "Roubaix", "code_postal": "59100", "longitude": 3.19335, "latitude": 50.689266, "frequence_achat": 13, "panier_moyen": 40.32, "mode_transport": "marche", "segment_theorique": 1 }, "geometry": { "type": "Point", "coordinates": [ 3.19335, 50.689266 ] } },
{ "type": "Feature", "properties": { "client_id": "CLI00053", "adresse": "Rue Cugnot 59100 Roubaix", "commune": "Roubaix", "code_postal": "59100", "longitude": 3.157505, "latitude": 50.687283, "frequence_achat": 12, "panier_moyen": 45.77, "mode_transport": "velo", "segment_theorique": 1 }, "geometry": { "type": "Point", "coordinates": [ 3.157505, 50.687283 ] } },
{ "type": "Feature", "properties": { "client_id": "CLI00054", "adresse": "Rue Drouot 59100 Roubaix", "commune": "Roubaix", "code_postal": "59100", "longitude": 3.179974, "latitude": 50.700997, "frequence_achat": 15, "panier_moyen": 53.29, "mode_transport": "marche", "segment_theorique": 1 }, "geometry": { "type": "Point", "coordinates": [ 3.179974, 50.700997 ] } },
{ "type": "Feature", "properties": { "client_id": "CLI00055", "adresse": "Rue Bayard 59100 Roubaix", "commune": "Roubaix", "code_postal": "59100", "longitude": 3.176849, "latitude": 50.70367, "frequence_achat": 23, "panier_moyen": 41.74, "mode_transport": "marche", "segment_theorique": 1 }, "geometry": { "type": "Point", "coordinates": [ 3.176849, 50.70367 ] } },
{ "type": "Feature", "properties": { "client_id": "CLI00056", "adresse": "Rue Rollin 59100 Roubaix", "commune": "Roubaix", "code_postal": "59100", "longitude": 3.177292, "latitude": 50.704701, "frequence_achat": 21, "panier_moyen": 54.15, "mode_transport": "velo", "segment_theorique": 1 }, "geometry": { "type": "Point", "coordinates": [ 3.177292, 50.704701 ] } },
{ "type": "Feature", "properties": { "client_id": "CLI00057", "adresse": "Rue Newton 59100 Roubaix", "commune": "Roubaix", "code_postal": "59100", "longitude": 3.190068, "latitude": 50.691854, "frequence_achat": 21, "panier_moyen": 45.89, "mode_transport": "transport", "segment_theorique": 1 }, "geometry": { "type": "Point", "coordinates": [ 3.190068, 50.691854 ] } },
{ "type": "Feature", "properties": { "client_id": "CLI00058", "adresse": "Rue Thècle 59100 Roubaix", "commune": "Roubaix", "code_postal": "59100", "longitude": 3.183666, "latitude": 50.706386, "frequence_achat": 12, "panier_moyen": 33.55, "mode_transport": "velo", "segment_theorique": 1 }, "geometry": { "type": "Point", "coordinates": [ 3.183666, 50.706386 ] } },
{ "type": "Feature", "properties": { "client_id": "CLI00059", "adresse": "Rue Vallon 59100 Roubaix", "commune": "Roubaix", "code_postal": "59100", "longitude": 3.168908, "latitude": 50.702731, "frequence_achat": 8, "panier_moyen": 54.3, "mode_transport": "marche", "segment_theorique": 1 }, "geometry": { "type": "Point", "coordinates": [ 3.168908, 50.702731 ] } },
{ "type": "Feature", "properties": { "client_id": "CLI00060", "adresse": "Rue Kléber 59100 Roubaix", "commune": "Roubaix", "code_postal": "59100", "longitude": 3.19666, "latitude": 50.687617, "frequence_achat": 14, "panier_moyen": 33.36, "mode_transport": "velo", "segment_theorique": 1 }, "geometry": { "type": "Point", "coordinates": [ 3.19666, 50.687617 ] } },
{ "type": "Feature", "properties": { "client_id": "CLI00061", "adresse": "Rue Perrot 59100 Roubaix", "commune": "Roubaix", "code_postal": "59100", "longitude": 3.188765, "latitude": 50.694578, "frequence_achat": 10, "panier_moyen": 45.42, "mode_transport": "transport", "segment_theorique": 1 }, "geometry": { "type": "Point", "coordinates": [ 3.188765, 50.694578 ] } },
{ "type": "Feature", "properties": { "client_id": "CLI00062", "adresse": "Rue Turgot 59100 Roubaix", "commune": "Roubaix", "code_postal": "59100", "longitude": 3.174849, "latitude": 50.701974, "frequence_achat": 17, "panier_moyen": 54.57, "mode_transport": "velo", "segment_theorique": 1 }, "geometry": { "type": "Point", "coordinates": [ 3.174849, 50.701974 ] } },
{ "type": "Feature", "properties": { "client_id": "CLI00063", "adresse": "Rue Brézin 59100 Roubaix", "commune": "Roubaix", "code_postal": "59100", "longitude": 3.159786, "latitude": 50.688539, "frequence_achat": 11, "panier_moyen": 27.43, "mode_transport": "marche", "segment_theorique": 1 }, "geometry": { "type": "Point", "coordinates": [ 3.159786, 50.688539 ] } },
{ "type": "Feature", "properties": { "client_id": "CLI00064", "adresse": "Rue Buffon 59100 Roubaix", "commune": "Roubaix", "code_postal": "59100", "longitude": 3.179439, "latitude": 50.700488, "frequence_achat": 8, "panier_moyen": 46.85, "mode_transport": "marche", "segment_theorique": 1 }, "geometry": { "type": "Point", "coordinates": [ 3.179439, 50.700488 ] } },
{ "type": "Feature", "properties": { "client_id": "CLI00065", "adresse": "Rue Lannes 59100 Roubaix", "commune": "Roubaix", "code_postal": "59100", "longitude": 3.194921, "latitude": 50.690326, "frequence_achat": 11, "panier_moyen": 54.5, "mode_transport": "marche", "segment_theorique": 1 }, "geometry": { "type": "Point", "coordinates": [ 3.194921, 50.690326 ] } },
{ "type": "Feature", "properties": { "client_id": "CLI00066", "adresse": "Rue Latine 59100 Roubaix", "commune": "Roubaix", "code_postal": "59100", "longitude": 3.178057, "latitude": 50.695385, "frequence_achat": 22, "panier_moyen": 27.71, "mode_transport": "marche", "segment_theorique": 1 }, "geometry": { "type": "Point", "coordinates": [ 3.178057, 50.695385 ] } },
{ "type": "Feature", "properties": { "client_id": "CLI00067", "adresse": "Rue Thiers 59100 Roubaix", "commune": "Roubaix", "code_postal": "59100", "longitude": 3.186108, "latitude": 50.687197, "frequence_achat": 19, "panier_moyen": 40.25, "mode_transport": "transport", "segment_theorique": 1 }, "geometry": { "type": "Point", "coordinates": [ 3.186108, 50.687197 ] } },
{ "type": "Feature", "properties": { "client_id": "CLI00068", "adresse": "Rue racine 59100 Roubaix", "commune": "Roubaix", "code_postal": "59100", "longitude": 3.162434, "latitude": 50.702599, "frequence_achat": 10, "panier_moyen": 42.73, "mode_transport": "velo", "segment_theorique": 1 }, "geometry": { "type": "Point", "coordinates": [ 3.162434, 50.702599 ] } },
{ "type": "Feature", "properties": { "client_id": "CLI00069", "adresse": "Rue Grétry 59100 Roubaix", "commune": "Roubaix", "code_postal": "59100", "longitude": 3.176473, "latitude": 50.703913, "frequence_achat": 10, "panier_moyen": 46.33, "mode_transport": "velo", "segment_theorique": 1 }, "geometry": { "type": "Point", "coordinates": [ 3.176473, 50.703913 ] } },
{ "type": "Feature", "properties": { "client_id": "CLI00070", "adresse": "Rue Pascal 59100 Roubaix", "commune": "Roubaix", "code_postal": "59100", "longitude": 3.175841, "latitude": 50.684171, "frequence_achat": 11, "panier_moyen": 44.36, "mode_transport": "transport", "segment_theorique": 1 }, "geometry": { "type": "Point", "coordinates": [ 3.175841, 50.684171 ] } },
{ "type": "Feature", "properties": { "client_id": "CLI00071", "adresse": "Rue Guizot 59100 Roubaix", "commune": "Roubaix", "code_postal": "59100", "longitude": 3.191732, "latitude": 50.686532, "frequence_achat": 8, "panier_moyen": 36.93, "mode_transport": "marche", "segment_theorique": 1 }, "geometry": { "type": "Point", "coordinates": [ 3.191732, 50.686532 ] } },
{ "type": "Feature", "properties": { "client_id": "CLI00072", "adresse": "Rue Decrême 59100 Roubaix", "commune": "Roubaix", "code_postal": "59100", "longitude": 3.180713, "latitude": 50.685406, "frequence_achat": 15, "panier_moyen": 29.13, "mode_transport": "velo", "segment_theorique": 1 }, "geometry": { "type": "Point", "coordinates": [ 3.180713, 50.685406 ] } },
{ "type": "Feature", "properties": { "client_id": "CLI00073", "adresse": "Rue de Tourcoing 59100 Roubaix", "commune": "Roubaix", "code_postal": "59100", "longitude": 3.172698, "latitude": 50.701619, "frequence_achat": 16, "panier_moyen": 31.27, "mode_transport": "marche", "segment_theorique": 1 }, "geometry": { "type": "Point", "coordinates": [ 3.172698, 50.701619 ] } },
{ "type": "Feature", "properties": { "client_id": "CLI00074", "adresse": "Rue de Tourcoing 37100 Tours", "commune": "Tours", "code_postal": "37100", "longitude": 0.683261, "latitude": 47.421157, "frequence_achat": 17, "panier_moyen": 32.74, "mode_transport": "velo", "segment_theorique": 1 }, "geometry": { "type": "Point", "coordinates": [ 0.683261, 47.421157 ] } },
{ "type": "Feature", "properties": { "client_id": "CLI00075", "adresse": "Rue de Tourcoing 59290 Wasquehal", "commune": "Wasquehal", "code_postal": "59290", "longitude": 3.146585, "latitude": 50.691039, "frequence_achat": 17, "panier_moyen": 54.47, "mode_transport": "velo", "segment_theorique": 1 }, "geometry": { "type": "Point", "coordinates": [ 3.146585, 50.691039 ] } },
{ "type": "Feature", "properties": { "client_id": "CLI00076", "adresse": "Rue de Tourcoing 59240 Dunkerque", "commune": "Dunkerque", "code_postal": "59240", "longitude": 2.403275, "latitude": 51.050419, "frequence_achat": 8, "panier_moyen": 32.26, "mode_transport": "velo", "segment_theorique": 1 }, "geometry": { "type": "Point", "coordinates": [ 2.403275, 51.050419 ] } },
{ "type": "Feature", "properties": { "client_id": "CLI00077", "adresse": "Rue de Tourcoing 59400 Cambrai", "commune": "Cambrai", "code_postal": "59400", "longitude": 3.240956, "latitude": 50.183515, "frequence_achat": 19, "panier_moyen": 41.75, "mode_transport": "marche", "segment_theorique": 1 }, "geometry": { "type": "Point", "coordinates": [ 3.240956, 50.183515 ] } },
{ "type": "Feature", "properties": { "client_id": "CLI00078", "adresse": "Rue de Tourcoing 59960 Neuville-en-Ferrain", "commune": "Neuville-en-Ferrain", "code_postal": "59960", "longitude": 3.157916, "latitude": 50.746658, "frequence_achat": 14, "panier_moyen": 35.17, "mode_transport": "transport", "segment_theorique": 1 }, "geometry": { "type": "Point", "coordinates": [ 3.157916, 50.746658 ] } },
{ "type": "Feature", "properties": { "client_id": "CLI00079", "adresse": "Rue de Tourcoing 59223 Roncq", "commune": "Roncq", "code_postal": "59223", "longitude": 3.123486, "latitude": 50.736963, "frequence_achat": 23, "panier_moyen": 50.4, "mode_transport": "marche", "segment_theorique": 1 }, "geometry": { "type": "Point", "coordinates": [ 3.123486, 50.736963 ] } },
{ "type": "Feature", "properties": { "client_id": "CLI00080", "adresse": "rue de Tourcoing 87000 Limoges", "commune": "Limoges", "code_postal": "87000", "longitude": 1.265778, "latitude": 45.810274, "frequence_achat": 13, "panier_moyen": 48.4, "mode_transport": "transport", "segment_theorique": 1 }, "geometry": { "type": "Point", "coordinates": [ 1.265778, 45.810274 ] } },
{ "type": "Feature", "properties": { "client_id": "CLI00081", "adresse": "Rue de Tourcoing 59420 Mouvaux", "commune": "Mouvaux", "code_postal": "59420", "longitude": 3.1349, "latitude": 50.713374, "frequence_achat": 18, "panier_moyen": 53.07, "mode_transport": "velo", "segment_theorique": 1 }, "geometry": { "type": "Point", "coordinates": [ 3.1349, 50.713374 ] } },
{ "type": "Feature", "properties": { "client_id": "CLI00082", "adresse": "Rue de Tourcoing 59170 Croix", "commune": "Croix", "code_postal": "59170", "longitude": 3.145077, "latitude": 50.678175, "frequence_achat": 15, "panier_moyen": 43.19, "mode_transport": "transport", "segment_theorique": 1 }, "geometry": { "type": "Point", "coordinates": [ 3.145077, 50.678175 ] } },
{ "type": "Feature", "properties": { "client_id": "CLI00083", "adresse": "Rue de Tourcoing 02100 Saint-Quentin", "commune": "Saint-Quentin", "code_postal": "02100", "longitude": 3.265662, "latitude": 49.865605, "frequence_achat": 21, "panier_moyen": 53.2, "mode_transport": "marche", "segment_theorique": 1 }, "geometry": { "type": "Point", "coordinates": [ 3.265662, 49.865605 ] } },
{ "type": "Feature", "properties": { "client_id": "CLI00084", "adresse": "Rue de Tourcoing 78711 Mantes-la-Ville", "commune": "Mantes-la-Ville", "code_postal": "78711", "longitude": 1.707373, "latitude": 48.979927, "frequence_achat": 9, "panier_moyen": 29.82, "mode_transport": "transport", "segment_theorique": 1 }, "geometry": { "type": "Point", "coordinates": [ 1.707373, 48.979927 ] } },
{ "type": "Feature", "properties": { "client_id": "CLI00085", "adresse": "Rue de Tourcoing 59126 Linselles", "commune": "Linselles", "code_postal": "59126", "longitude": 3.082932, "latitude": 50.740232, "frequence_achat": 13, "panier_moyen": 38.45, "mode_transport": "velo", "segment_theorique": 1 }, "geometry": { "type": "Point", "coordinates": [ 3.082932, 50.740232 ] } },
{ "type": "Feature", "properties": { "client_id": "CLI00086", "adresse": "Rue de Tourcoing 62430 Sallaumines", "commune": "Sallaumines", "code_postal": "62430", "longitude": 2.858365, "latitude": 50.418872, "frequence_achat": 11, "panier_moyen": 46.37, "mode_transport": "transport", "segment_theorique": 1 }, "geometry": { "type": "Point", "coordinates": [ 2.858365, 50.418872 ] } },
{ "type": "Feature", "properties": { "client_id": "CLI00087", "adresse": "Rue de Tourcoing 62540 Marles-les-Mines", "commune": "Marles-les-Mines", "code_postal": "62540", "longitude": 2.492154, "latitude": 50.496445, "frequence_achat": 12, "panier_moyen": 30.36, "mode_transport": "marche", "segment_theorique": 1 }, "geometry": { "type": "Point", "coordinates": [ 2.492154, 50.496445 ] } },
{ "type": "Feature", "properties": { "client_id": "CLI00088", "adresse": "Rue de Tourcoing 62400 Béthune", "commune": "Béthune", "code_postal": "62400", "longitude": 2.639251, "latitude": 50.517546, "frequence_achat": 15, "panier_moyen": 50.48, "mode_transport": "marche", "segment_theorique": 1 }, "geometry": { "type": "Point", "coordinates": [ 2.639251, 50.517546 ] } },
{ "type": "Feature", "properties": { "client_id": "CLI00089", "adresse": "Rue de Tourcoing 62700 Bruay-la-Buissière", "commune": "Bruay-la-Buissière", "code_postal": "62700", "longitude": 2.538095, "latitude": 50.486411, "frequence_achat": 8, "panier_moyen": 41.28, "mode_transport": "velo", "segment_theorique": 1 }, "geometry": { "type": "Point", "coordinates": [ 2.538095, 50.486411 ] } },
{ "type": "Feature", "properties": { "client_id": "CLI00090", "adresse": "Rue de Tourcoing 62164 Ambleteuse", "commune": "Ambleteuse", "code_postal": "62164", "longitude": 1.60002, "latitude": 50.809525, "frequence_achat": 13, "panier_moyen": 32.96, "mode_transport": "velo", "segment_theorique": 1 }, "geometry": { "type": "Point", "coordinates": [ 1.60002, 50.809525 ] } },
{ "type": "Feature", "properties": { "client_id": "CLI00091", "adresse": "Rue Auber 59200 Tourcoing", "commune": "Tourcoing", "code_postal": "59200", "longitude": 3.161721, "latitude": 50.730093, "frequence_achat": 13, "panier_moyen": 54.37, "mode_transport": "marche", "segment_theorique": 1 }, "geometry": { "type": "Point", "coordinates": [ 3.161721, 50.730093 ] } },
{ "type": "Feature", "properties": { "client_id": "CLI00092", "adresse": "Rue Basse 59200 Tourcoing", "commune": "Tourcoing", "code_postal": "59200", "longitude": 3.157572, "latitude": 50.73726, "frequence_achat": 15, "panier_moyen": 43.93, "mode_transport": "velo", "segment_theorique": 1 }, "geometry": { "type": "Point", "coordinates": [ 3.157572, 50.73726 ] } },
{ "type": "Feature", "properties": { "client_id": "CLI00093", "adresse": "Rue Hoche 59200 Tourcoing", "commune": "Tourcoing", "code_postal": "59200", "longitude": 3.143572, "latitude": 50.722451, "frequence_achat": 21, "panier_moyen": 44.35, "mode_transport": "transport", "segment_theorique": 1 }, "geometry": { "type": "Point", "coordinates": [ 3.143572, 50.722451 ] } },
{ "type": "Feature", "properties": { "client_id": "CLI00094", "adresse": "Rue Arago 59200 Tourcoing", "commune": "Tourcoing", "code_postal": "59200", "longitude": 3.158094, "latitude": 50.731425, "frequence_achat": 8, "panier_moyen": 30.86, "mode_transport": "velo", "segment_theorique": 1 }, "geometry": { "type": "Point", "coordinates": [ 3.158094, 50.731425 ] } },
{ "type": "Feature", "properties": { "client_id": "CLI00095", "adresse": "Rue Motte 59200 Tourcoing", "commune": "Tourcoing", "code_postal": "59200", "longitude": 3.161079, "latitude": 50.718144, "frequence_achat": 10, "panier_moyen": 42.16, "mode_transport": "velo", "segment_theorique": 1 }, "geometry": { "type": "Point", "coordinates": [ 3.161079, 50.718144 ] } },
{ "type": "Feature", "properties": { "client_id": "CLI00096", "adresse": "Rue Haute 59200 Tourcoing", "commune": "Tourcoing", "code_postal": "59200", "longitude": 3.170161, "latitude": 50.727456, "frequence_achat": 23, "panier_moyen": 30.31, "mode_transport": "transport", "segment_theorique": 1 }, "geometry": { "type": "Point", "coordinates": [ 3.170161, 50.727456 ] } },
{ "type": "Feature", "properties": { "client_id": "CLI00097", "adresse": "Rue Monge 59200 Tourcoing", "commune": "Tourcoing", "code_postal": "59200", "longitude": 3.144441, "latitude": 50.735335, "frequence_achat": 20, "panier_moyen": 33.39, "mode_transport": "transport", "segment_theorique": 1 }, "geometry": { "type": "Point", "coordinates": [ 3.144441, 50.735335 ] } },
{ "type": "Feature", "properties": { "client_id": "CLI00098", "adresse": "Rue Neuve 59200 Tourcoing", "commune": "Tourcoing", "code_postal": "59200", "longitude": 3.145906, "latitude": 50.723032, "frequence_achat": 19, "panier_moyen": 25.46, "mode_transport": "transport", "segment_theorique": 1 }, "geometry": { "type": "Point", "coordinates": [ 3.145906, 50.723032 ] } },
{ "type": "Feature", "properties": { "client_id": "CLI00099", "adresse": "Rue Verte 59200 Tourcoing", "commune": "Tourcoing", "code_postal": "59200", "longitude": 3.164982, "latitude": 50.72515, "frequence_achat": 8, "panier_moyen": 41.58, "mode_transport": "transport", "segment_theorique": 1 }, "geometry": { "type": "Point", "coordinates": [ 3.164982, 50.72515 ] } },
{ "type": "Feature", "properties": { "client_id": "CLI00100", "adresse": "Rue Linne 59200 Tourcoing", "commune": "Tourcoing", "code_postal": "59200", "longitude": 3.192749, "latitude": 50.737248, "frequence_achat": 19, "panier_moyen": 50.59, "mode_transport": "velo", "segment_theorique": 1 }, "geometry": { "type": "Point", "coordinates": [ 3.192749, 50.737248 ] } },
{ "type": "Feature", "properties": { "client_id": "CLI00101", "adresse": "Rue Ingres 59200 Tourcoing", "commune": "Tourcoing", "code_postal": "59200", "longitude": 3.157856, "latitude": 50.73451, "frequence_achat": 12, "panier_moyen": 30.73, "mode_transport": "marche", "segment_theorique": 1 }, "geometry": { "type": "Point", "coordinates": [ 3.157856, 50.73451 ] } },
{ "type": "Feature", "properties": { "client_id": "CLI00102", "adresse": "Rue Racine 59200 Tourcoing", "commune": "Tourcoing", "code_postal": "59200", "longitude": 3.146501, "latitude": 50.735743, "frequence_achat": 10, "panier_moyen": 30.08, "mode_transport": "marche", "segment_theorique": 1 }, "geometry": { "type": "Point", "coordinates": [ 3.146501, 50.735743 ] } },
{ "type": "Feature", "properties": { "client_id": "CLI00103", "adresse": "Rue Turgot 59200 Tourcoing", "commune": "Tourcoing", "code_postal": "59200", "longitude": 3.155647, "latitude": 50.733007, "frequence_achat": 22, "panier_moyen": 50.33, "mode_transport": "velo", "segment_theorique": 1 }, "geometry": { "type": "Point", "coordinates": [ 3.155647, 50.733007 ] } },
{ "type": "Feature", "properties": { "client_id": "CLI00104", "adresse": "Rue Desaix 59200 Tourcoing", "commune": "Tourcoing", "code_postal": "59200", "longitude": 3.15037, "latitude": 50.73007, "frequence_achat": 21, "panier_moyen": 27.92, "mode_transport": "transport", "segment_theorique": 1 }, "geometry": { "type": "Point", "coordinates": [ 3.15037, 50.73007 ] } },
{ "type": "Feature", "properties": { "client_id": "CLI00105", "adresse": "Rue Cuvier 59200 Tourcoing", "commune": "Tourcoing", "code_postal": "59200", "longitude": 3.15586, "latitude": 50.695922, "frequence_achat": 13, "panier_moyen": 35.76, "mode_transport": "velo", "segment_theorique": 1 }, "geometry": { "type": "Point", "coordinates": [ 3.15586, 50.695922 ] } },
{ "type": "Feature", "properties": { "client_id": "CLI00106", "adresse": "Rue Kléber 59200 Tourcoing", "commune": "Tourcoing", "code_postal": "59200", "longitude": 3.156248, "latitude": 50.701166, "frequence_achat": 17, "panier_moyen": 51.32, "mode_transport": "marche", "segment_theorique": 1 }, "geometry": { "type": "Point", "coordinates": [ 3.156248, 50.701166 ] } },
{ "type": "Feature", "properties": { "client_id": "CLI00107", "adresse": "Rue Balzac 59200 Tourcoing", "commune": "Tourcoing", "code_postal": "59200", "longitude": 3.168209, "latitude": 50.710872, "frequence_achat": 8, "panier_moyen": 29.1, "mode_transport": "velo", "segment_theorique": 1 }, "geometry": { "type": "Point", "coordinates": [ 3.168209, 50.710872 ] } },
{ "type": "Feature", "properties": { "client_id": "CLI00108", "adresse": "Rue Buffon 59200 Tourcoing", "commune": "Tourcoing", "code_postal": "59200", "longitude": 3.175286, "latitude": 50.728277, "frequence_achat": 14, "panier_moyen": 33.81, "mode_transport": "velo", "segment_theorique": 1 }, "geometry": { "type": "Point", "coordinates": [ 3.175286, 50.728277 ] } },
{ "type": "Feature", "properties": { "client_id": "CLI00109", "adresse": "Rue Villeneuve d'Ascq 97419 La Possession", "commune": "La Possession", "code_postal": "97419", "longitude": 55.340467, "latitude": -20.95602, "frequence_achat": 10, "panier_moyen": 32.69, "mode_transport": "transport", "segment_theorique": 1 }, "geometry": { "type": "Point", "coordinates": [ 55.340467, -20.95602 ] } },
{ "type": "Feature", "properties": { "client_id": "CLI00110", "adresse": "Rue d’Hem 59491 Villeneuve-d'Ascq", "commune": "Villeneuve-d'Ascq", "code_postal": "59491", "longitude": 3.157183, "latitude": 50.653412, "frequence_achat": 19, "panier_moyen": 40.34, "mode_transport": "velo", "segment_theorique": 1 }, "geometry": { "type": "Point", "coordinates": [ 3.157183, 50.653412 ] } },
{ "type": "Feature", "properties": { "client_id": "CLI00111", "adresse": "Rue David 59493 Villeneuve-d'Ascq", "commune": "Villeneuve-d'Ascq", "code_postal": "59493", "longitude": 3.155122, "latitude": 50.618317, "frequence_achat": 20, "panier_moyen": 30.83, "mode_transport": "velo", "segment_theorique": 1 }, "geometry": { "type": "Point", "coordinates": [ 3.155122, 50.618317 ] } },
{ "type": "Feature", "properties": { "client_id": "CLI00112", "adresse": "Rue Papin 59650 Villeneuve-d'Ascq", "commune": "Villeneuve-d'Ascq", "code_postal": "59650", "longitude": 3.128649, "latitude": 50.648799, "frequence_achat": 21, "panier_moyen": 48.87, "mode_transport": "marche", "segment_theorique": 1 }, "geometry": { "type": "Point", "coordinates": [ 3.128649, 50.648799 ] } },
{ "type": "Feature", "properties": { "client_id": "CLI00113", "adresse": "Rue Degas 59493 Villeneuve-d'Ascq", "commune": "Villeneuve-d'Ascq", "code_postal": "59493", "longitude": 3.153399, "latitude": 50.616877, "frequence_achat": 14, "panier_moyen": 25.83, "mode_transport": "transport", "segment_theorique": 1 }, "geometry": { "type": "Point", "coordinates": [ 3.153399, 50.616877 ] } },
{ "type": "Feature", "properties": { "client_id": "CLI00114", "adresse": "Rue Breve 59650 Villeneuve-d'Ascq", "commune": "Villeneuve-d'Ascq", "code_postal": "59650", "longitude": 3.131087, "latitude": 50.626106, "frequence_achat": 23, "panier_moyen": 42.35, "mode_transport": "velo", "segment_theorique": 1 }, "geometry": { "type": "Point", "coordinates": [ 3.131087, 50.626106 ] } },
{ "type": "Feature", "properties": { "client_id": "CLI00115", "adresse": "Rue Corot 59493 Villeneuve-d'Ascq", "commune": "Villeneuve-d'Ascq", "code_postal": "59493", "longitude": 3.154163, "latitude": 50.61948, "frequence_achat": 16, "panier_moyen": 29.65, "mode_transport": "marche", "segment_theorique": 1 }, "geometry": { "type": "Point", "coordinates": [ 3.154163, 50.61948 ] } },
{ "type": "Feature", "properties": { "client_id": "CLI00116", "adresse": "Rue Hergé 59493 Villeneuve-d'Ascq", "commune": "Villeneuve-d'Ascq", "code_postal": "59493", "longitude": 3.15591, "latitude": 50.604947, "frequence_achat": 13, "panier_moyen": 42.72, "mode_transport": "transport", "segment_theorique": 1 }, "geometry": { "type": "Point", "coordinates": [ 3.15591, 50.604947 ] } },
{ "type": "Feature", "properties": { "client_id": "CLI00117", "adresse": "Rue Talma 59650 Villeneuve-d'Ascq", "commune": "Villeneuve-d'Ascq", "code_postal": "59650", "longitude": 3.150768, "latitude": 50.615141, "frequence_achat": 11, "panier_moyen": 26.17, "mode_transport": "marche", "segment_theorique": 1 }, "geometry": { "type": "Point", "coordinates": [ 3.150768, 50.615141 ] } },
{ "type": "Feature", "properties": { "client_id": "CLI00118", "adresse": "Rue Verte 59650 Villeneuve-d'Ascq", "commune": "Villeneuve-d'Ascq", "code_postal": "59650", "longitude": 3.126539, "latitude": 50.620372, "frequence_achat": 18, "panier_moyen": 28.81, "mode_transport": "marche", "segment_theorique": 1 }, "geometry": { "type": "Point", "coordinates": [ 3.126539, 50.620372 ] } },
{ "type": "Feature", "properties": { "client_id": "CLI00119", "adresse": "Rue Hoche 59491 Villeneuve-d'Ascq", "commune": "Villeneuve-d'Ascq", "code_postal": "59491", "longitude": 3.148644, "latitude": 50.65848, "frequence_achat": 12, "panier_moyen": 33.15, "mode_transport": "velo", "segment_theorique": 1 }, "geometry": { "type": "Point", "coordinates": [ 3.148644, 50.65848 ] } },
{ "type": "Feature", "properties": { "client_id": "CLI00120", "adresse": "Rue Kleber 59650 Villeneuve-d'Ascq", "commune": "Villeneuve-d'Ascq", "code_postal": "59650", "longitude": 3.16946, "latitude": 50.620352, "frequence_achat": 14, "panier_moyen": 27.56, "mode_transport": "transport", "segment_theorique": 1 }, "geometry": { "type": "Point", "coordinates": [ 3.16946, 50.620352 ] } },
{ "type": "Feature", "properties": { "client_id": "CLI00121", "adresse": "Rue Mangin 59493 Villeneuve-d'Ascq", "commune": "Villeneuve-d'Ascq", "code_postal": "59493", "longitude": 3.165817, "latitude": 50.620025, "frequence_achat": 11, "panier_moyen": 37.34, "mode_transport": "marche", "segment_theorique": 1 }, "geometry": { "type": "Point", "coordinates": [ 3.165817, 50.620025 ] } },
{ "type": "Feature", "properties": { "client_id": "CLI00122", "adresse": "Rue Renoir 59493 Villeneuve-d'Ascq", "commune": "Villeneuve-d'Ascq", "code_postal": "59493", "longitude": 3.154019, "latitude": 50.62009, "frequence_achat": 15, "panier_moyen": 46.78, "mode_transport": "velo", "segment_theorique": 1 }, "geometry": { "type": "Point", "coordinates": [ 3.154019, 50.62009 ] } },
{ "type": "Feature", "properties": { "client_id": "CLI00123", "adresse": "Rue Racine 59650 Villeneuve-d'Ascq", "commune": "Villeneuve-d'Ascq", "code_postal": "59650", "longitude": 3.140072, "latitude": 50.626044, "frequence_achat": 19, "panier_moyen": 46.44, "mode_transport": "transport", "segment_theorique": 1 }, "geometry": { "type": "Point", "coordinates": [ 3.140072, 50.626044 ] } },
{ "type": "Feature", "properties": { "client_id": "CLI00124", "adresse": "Rue Thiers 59493 Villeneuve-d'Ascq", "commune": "Villeneuve-d'Ascq", "code_postal": "59493", "longitude": 3.167241, "latitude": 50.611227, "frequence_achat": 15, "panier_moyen": 33.12, "mode_transport": "marche", "segment_theorique": 1 }, "geometry": { "type": "Point", "coordinates": [ 3.167241, 50.611227 ] } },
{ "type": "Feature", "properties": { "client_id": "CLI00125", "adresse": "Rue Devred 59650 Villeneuve-d'Ascq", "commune": "Villeneuve-d'Ascq", "code_postal": "59650", "longitude": 3.128085, "latitude": 50.638226, "frequence_achat": 14, "panier_moyen": 32.53, "mode_transport": "velo", "segment_theorique": 1 }, "geometry": { "type": "Point", "coordinates": [ 3.128085, 50.638226 ] } },
{ "type": "Feature", "properties": { "client_id": "CLI00126", "adresse": "Rue Fermat 59650 Villeneuve-d'Ascq", "commune": "Villeneuve-d'Ascq", "code_postal": "59650", "longitude": 3.123975, "latitude": 50.63612, "frequence_achat": 21, "panier_moyen": 50.08, "mode_transport": "marche", "segment_theorique": 1 }, "geometry": { "type": "Point", "coordinates": [ 3.123975, 50.63612 ] } },
{ "type": "Feature", "properties": { "client_id": "CLI00127", "adresse": "Rue Rameau 59650 Villeneuve-d'Ascq", "commune": "Villeneuve-d'Ascq", "code_postal": "59650", "longitude": 3.140072, "latitude": 50.62263, "frequence_achat": 12, "panier_moyen": 26.75, "mode_transport": "velo", "segment_theorique": 1 }, "geometry": { "type": "Point", "coordinates": [ 3.140072, 50.62263 ] } },
{ "type": "Feature", "properties": { "client_id": "CLI00128", "adresse": "Rue Balzac 59650 Villeneuve-d'Ascq", "commune": "Villeneuve-d'Ascq", "code_postal": "59650", "longitude": 3.138463, "latitude": 50.624052, "frequence_achat": 22, "panier_moyen": 32.51, "mode_transport": "transport", "segment_theorique": 1 }, "geometry": { "type": "Point", "coordinates": [ 3.138463, 50.624052 ] } },
{ "type": "Feature", "properties": { "client_id": "CLI00129", "adresse": "Rue Chappe 59650 Villeneuve-d'Ascq", "commune": "Villeneuve-d'Ascq", "code_postal": "59650", "longitude": 3.125093, "latitude": 50.64341, "frequence_achat": 23, "panier_moyen": 30.49, "mode_transport": "velo", "segment_theorique": 1 }, "geometry": { "type": "Point", "coordinates": [ 3.125093, 50.64341 ] } },
{ "type": "Feature", "properties": { "client_id": "CLI00130", "adresse": "Rue Mozart 59491 Villeneuve-d'Ascq", "commune": "Villeneuve-d'Ascq", "code_postal": "59491", "longitude": 3.145367, "latitude": 50.661014, "frequence_achat": 8, "panier_moyen": 53.65, "mode_transport": "transport", "segment_theorique": 1 }, "geometry": { "type": "Point", "coordinates": [ 3.145367, 50.661014 ] } },
{ "type": "Feature", "properties": { "client_id": "CLI00131", "adresse": "Rue Massena 59650 Villeneuve-d'Ascq", "commune": "Villeneuve-d'Ascq", "code_postal": "59650", "longitude": 3.16754, "latitude": 50.623964, "frequence_achat": 22, "panier_moyen": 38.07, "mode_transport": "velo", "segment_theorique": 1 }, "geometry": { "type": "Point", "coordinates": [ 3.16754, 50.623964 ] } },
{ "type": "Feature", "properties": { "client_id": "CLI00132", "adresse": "Rue Colbert 59493 Villeneuve-d'Ascq", "commune": "Villeneuve-d'Ascq", "code_postal": "59493", "longitude": 3.170867, "latitude": 50.616318, "frequence_achat": 10, "panier_moyen": 32.43, "mode_transport": "velo", "segment_theorique": 1 }, "geometry": { "type": "Point", "coordinates": [ 3.170867, 50.616318 ] } },
{ "type": "Feature", "properties": { "client_id": "CLI00133", "adresse": "Rue Pasteur 59650 Villeneuve-d'Ascq", "commune": "Villeneuve-d'Ascq", "code_postal": "59650", "longitude": 3.151902, "latitude": 50.626265, "frequence_achat": 12, "panier_moyen": 28.6, "mode_transport": "marche", "segment_theorique": 1 }, "geometry": { "type": "Point", "coordinates": [ 3.151902, 50.626265 ] } },
{ "type": "Feature", "properties": { "client_id": "CLI00134", "adresse": "Rue Moliere 59650 Villeneuve-d'Ascq", "commune": "Villeneuve-d'Ascq", "code_postal": "59650", "longitude": 3.138391, "latitude": 50.624799, "frequence_achat": 19, "panier_moyen": 26.38, "mode_transport": "marche", "segment_theorique": 1 }, "geometry": { "type": "Point", "coordinates": [ 3.138391, 50.624799 ] } },
{ "type": "Feature", "properties": { "client_id": "CLI00135", "adresse": "Rue Negrier 59493 Villeneuve-d'Ascq", "commune": "Villeneuve-d'Ascq", "code_postal": "59493", "longitude": 3.160285, "latitude": 50.620822, "frequence_achat": 21, "panier_moyen": 54.39, "mode_transport": "marche", "segment_theorique": 1 }, "geometry": { "type": "Point", "coordinates": [ 3.160285, 50.620822 ] } },
{ "type": "Feature", "properties": { "client_id": "CLI00136", "adresse": "Rue Bossuet 59650 Villeneuve-d'Ascq", "commune": "Villeneuve-d'Ascq", "code_postal": "59650", "longitude": 3.125979, "latitude": 50.640766, "frequence_achat": 23, "panier_moyen": 27.94, "mode_transport": "marche", "segment_theorique": 1 }, "geometry": { "type": "Point", "coordinates": [ 3.125979, 50.640766 ] } },
{ "type": "Feature", "properties": { "client_id": "CLI00137", "adresse": "Rue Boileau 59650 Villeneuve-d'Ascq", "commune": "Villeneuve-d'Ascq", "code_postal": "59650", "longitude": 3.140539, "latitude": 50.625356, "frequence_achat": 14, "panier_moyen": 35.39, "mode_transport": "velo", "segment_theorique": 1 }, "geometry": { "type": "Point", "coordinates": [ 3.140539, 50.625356 ] } },
{ "type": "Feature", "properties": { "client_id": "CLI00138", "adresse": "Rue Cezanne 59493 Villeneuve-d'Ascq", "commune": "Villeneuve-d'Ascq", "code_postal": "59493", "longitude": 3.152756, "latitude": 50.618253, "frequence_achat": 12, "panier_moyen": 36.96, "mode_transport": "velo", "segment_theorique": 1 }, "geometry": { "type": "Point", "coordinates": [ 3.152756, 50.618253 ] } },
{ "type": "Feature", "properties": { "client_id": "CLI00139", "adresse": "Rue Matisse 59493 Villeneuve-d'Ascq", "commune": "Villeneuve-d'Ascq", "code_postal": "59493", "longitude": 3.152267, "latitude": 50.619527, "frequence_achat": 12, "panier_moyen": 51.6, "mode_transport": "velo", "segment_theorique": 1 }, "geometry": { "type": "Point", "coordinates": [ 3.152267, 50.619527 ] } },
{ "type": "Feature", "properties": { "client_id": "CLI00140", "adresse": "Rue Ronsard 59650 Villeneuve-d'Ascq", "commune": "Villeneuve-d'Ascq", "code_postal": "59650", "longitude": 3.144908, "latitude": 50.624467, "frequence_achat": 17, "panier_moyen": 43.78, "mode_transport": "marche", "segment_theorique": 1 }, "geometry": { "type": "Point", "coordinates": [ 3.144908, 50.624467 ] } },
{ "type": "Feature", "properties": { "client_id": "CLI00141", "adresse": "Rue Berlioz 59650 Villeneuve-d'Ascq", "commune": "Villeneuve-d'Ascq", "code_postal": "59650", "longitude": 3.142928, "latitude": 50.620413, "frequence_achat": 8, "panier_moyen": 41.18, "mode_transport": "velo", "segment_theorique": 1 }, "geometry": { "type": "Point", "coordinates": [ 3.142928, 50.620413 ] } },
{ "type": "Feature", "properties": { "client_id": "CLI00142", "adresse": "Rue Vermeer 59650 Villeneuve-d'Ascq", "commune": "Villeneuve-d'Ascq", "code_postal": "59650", "longitude": 3.13386, "latitude": 50.618472, "frequence_achat": 23, "panier_moyen": 27.12, "mode_transport": "velo", "segment_theorique": 1 }, "geometry": { "type": "Point", "coordinates": [ 3.13386, 50.618472 ] } },
{ "type": "Feature", "properties": { "client_id": "CLI00143", "adresse": "Rue Heloise 59493 Villeneuve-d'Ascq", "commune": "Villeneuve-d'Ascq", "code_postal": "59493", "longitude": 3.150214, "latitude": 50.604374, "frequence_achat": 8, "panier_moyen": 51.02, "mode_transport": "velo", "segment_theorique": 1 }, "geometry": { "type": "Point", "coordinates": [ 3.150214, 50.604374 ] } },
{ "type": "Feature", "properties": { "client_id": "CLI00144", "adresse": "Rue Haddock 59493 Villeneuve-d'Ascq", "commune": "Villeneuve-d'Ascq", "code_postal": "59493", "longitude": 3.157924, "latitude": 50.605962, "frequence_achat": 11, "panier_moyen": 42.26, "mode_transport": "velo", "segment_theorique": 1 }, "geometry": { "type": "Point", "coordinates": [ 3.157924, 50.605962 ] } },
{ "type": "Feature", "properties": { "client_id": "CLI00145", "adresse": "Rue de Marcq-en-Baroeul 59290 Wasquehal", "commune": "Wasquehal", "code_postal": "59290", "longitude": 3.12031, "latitude": 50.671353, "frequence_achat": 19, "panier_moyen": 28.86, "mode_transport": "marche", "segment_theorique": 1 }, "geometry": { "type": "Point", "coordinates": [ 3.12031, 50.671353 ] } },
{ "type": "Feature", "properties": { "client_id": "CLI00146", "adresse": "Rue Scrive 59700 Marcq-en-Barœul", "commune": "Marcq-en-Barœul", "code_postal": "59700", "longitude": 3.074606, "latitude": 50.666137, "frequence_achat": 18, "panier_moyen": 53.24, "mode_transport": "transport", "segment_theorique": 1 }, "geometry": { "type": "Point", "coordinates": [ 3.074606, 50.666137 ] } },
{ "type": "Feature", "properties": { "client_id": "CLI00147", "adresse": "Rue Carnot 59700 Marcq-en-Barœul", "commune": "Marcq-en-Barœul", "code_postal": "59700", "longitude": 3.071134, "latitude": 50.66593, "frequence_achat": 8, "panier_moyen": 44.54, "mode_transport": "marche", "segment_theorique": 1 }, "geometry": { "type": "Point", "coordinates": [ 3.071134, 50.66593 ] } },
{ "type": "Feature", "properties": { "client_id": "CLI00148", "adresse": "Rue Moreau 59700 Marcq-en-Barœul", "commune": "Marcq-en-Barœul", "code_postal": "59700", "longitude": 3.074622, "latitude": 50.66829, "frequence_achat": 20, "panier_moyen": 27.08, "mode_transport": "marche", "segment_theorique": 1 }, "geometry": { "type": "Point", "coordinates": [ 3.074622, 50.66829 ] } },
{ "type": "Feature", "properties": { "client_id": "CLI00149", "adresse": "Rue Pasteur 59700 Marcq-en-Barœul", "commune": "Marcq-en-Barœul", "code_postal": "59700", "longitude": 3.079891, "latitude": 50.658436, "frequence_achat": 9, "panier_moyen": 26.17, "mode_transport": "marche", "segment_theorique": 1 }, "geometry": { "type": "Point", "coordinates": [ 3.079891, 50.658436 ] } },
{ "type": "Feature", "properties": { "client_id": "CLI00150", "adresse": "Rue Meunier 59700 Marcq-en-Barœul", "commune": "Marcq-en-Barœul", "code_postal": "59700", "longitude": 3.082481, "latitude": 50.675657, "frequence_achat": 14, "panier_moyen": 27.14, "mode_transport": "velo", "segment_theorique": 1 }, "geometry": { "type": "Point", "coordinates": [ 3.082481, 50.675657 ] } },
{ "type": "Feature", "properties": { "client_id": "CLI00151", "adresse": "Rue du Midi 59700 Marcq-en-Barœul", "commune": "Marcq-en-Barœul", "code_postal": "59700", "longitude": 3.074555, "latitude": 50.665848, "frequence_achat": 17, "panier_moyen": 45.45, "mode_transport": "marche", "segment_theorique": 1 }, "geometry": { "type": "Point", "coordinates": [ 3.074555, 50.665848 ] } },
{ "type": "Feature", "properties": { "client_id": "CLI00152", "adresse": "Rue du Nord 59700 Marcq-en-Barœul", "commune": "Marcq-en-Barœul", "code_postal": "59700", "longitude": 3.074673, "latitude": 50.666413, "frequence_achat": 10, "panier_moyen": 33.46, "mode_transport": "marche", "segment_theorique": 1 }, "geometry": { "type": "Point", "coordinates": [ 3.074673, 50.666413 ] } },
{ "type": "Feature", "properties": { "client_id": "CLI00153", "adresse": "Rue du Fort 59700 Marcq-en-Barœul", "commune": "Marcq-en-Barœul", "code_postal": "59700", "longitude": 3.109359, "latitude": 50.686223, "frequence_achat": 12, "panier_moyen": 35.45, "mode_transport": "marche", "segment_theorique": 1 }, "geometry": { "type": "Point", "coordinates": [ 3.109359, 50.686223 ] } },
{ "type": "Feature", "properties": { "client_id": "CLI00154", "adresse": "Rue Galilée 59700 Marcq-en-Barœul", "commune": "Marcq-en-Barœul", "code_postal": "59700", "longitude": 3.085593, "latitude": 50.659515, "frequence_achat": 15, "panier_moyen": 47.05, "mode_transport": "transport", "segment_theorique": 1 }, "geometry": { "type": "Point", "coordinates": [ 3.085593, 50.659515 ] } },
{ "type": "Feature", "properties": { "client_id": "CLI00155", "adresse": "Rue Faraday 59700 Marcq-en-Barœul", "commune": "Marcq-en-Barœul", "code_postal": "59700", "longitude": 3.090965, "latitude": 50.6513, "frequence_achat": 16, "panier_moyen": 41.44, "mode_transport": "transport", "segment_theorique": 1 }, "geometry": { "type": "Point", "coordinates": [ 3.090965, 50.6513 ] } },
{ "type": "Feature", "properties": { "client_id": "CLI00156", "adresse": "Rue Fenelon 59700 Marcq-en-Barœul", "commune": "Marcq-en-Barœul", "code_postal": "59700", "longitude": 3.091389, "latitude": 50.678877, "frequence_achat": 15, "panier_moyen": 49.21, "mode_transport": "velo", "segment_theorique": 1 }, "geometry": { "type": "Point", "coordinates": [ 3.091389, 50.678877 ] } },
{ "type": "Feature", "properties": { "client_id": "CLI00157", "adresse": "Rue Boileau 59700 Marcq-en-Barœul", "commune": "Marcq-en-Barœul", "code_postal": "59700", "longitude": 3.095454, "latitude": 50.677649, "frequence_achat": 23, "panier_moyen": 28.83, "mode_transport": "transport", "segment_theorique": 1 }, "geometry": { "type": "Point", "coordinates": [ 3.095454, 50.677649 ] } },
{ "type": "Feature", "properties": { "client_id": "CLI00158", "adresse": "Rue Louiset 59700 Marcq-en-Barœul", "commune": "Marcq-en-Barœul", "code_postal": "59700", "longitude": 3.073606, "latitude": 50.668462, "frequence_achat": 23, "panier_moyen": 35.22, "mode_transport": "marche", "segment_theorique": 1 }, "geometry": { "type": "Point", "coordinates": [ 3.073606, 50.668462 ] } },
{ "type": "Feature", "properties": { "client_id": "CLI00159", "adresse": "Rue Magenta 59700 Marcq-en-Barœul", "commune": "Marcq-en-Barœul", "code_postal": "59700", "longitude": 3.071455, "latitude": 50.665523, "frequence_achat": 12, "panier_moyen": 32.16, "mode_transport": "transport", "segment_theorique": 1 }, "geometry": { "type": "Point", "coordinates": [ 3.071455, 50.665523 ] } },
{ "type": "Feature", "properties": { "client_id": "CLI00160", "adresse": "Rue Reaumur 59700 Marcq-en-Barœul", "commune": "Marcq-en-Barœul", "code_postal": "59700", "longitude": 3.083661, "latitude": 50.652231, "frequence_achat": 14, "panier_moyen": 47.64, "mode_transport": "velo", "segment_theorique": 1 }, "geometry": { "type": "Point", "coordinates": [ 3.083661, 50.652231 ] } },
{ "type": "Feature", "properties": { "client_id": "CLI00161", "adresse": "Rue de Menin 59700 Marcq-en-Barœul", "commune": "Marcq-en-Barœul", "code_postal": "59700", "longitude": 3.079904, "latitude": 50.675032, "frequence_achat": 8, "panier_moyen": 41.03, "mode_transport": "marche", "segment_theorique": 1 }, "geometry": { "type": "Point", "coordinates": [ 3.079904, 50.675032 ] } },
{ "type": "Feature", "properties": { "client_id": "CLI00162", "adresse": "Rue Jacquard 59700 Marcq-en-Barœul", "commune": "Marcq-en-Barœul", "code_postal": "59700", "longitude": 3.072323, "latitude": 50.666309, "frequence_achat": 16, "panier_moyen": 34.6, "mode_transport": "velo", "segment_theorique": 1 }, "geometry": { "type": "Point", "coordinates": [ 3.072323, 50.666309 ] } },
{ "type": "Feature", "properties": { "client_id": "CLI00163", "adresse": "Rue de Valmy 59700 Marcq-en-Barœul", "commune": "Marcq-en-Barœul", "code_postal": "59700", "longitude": 3.09347, "latitude": 50.651963, "frequence_achat": 8, "panier_moyen": 26.6, "mode_transport": "transport", "segment_theorique": 1 }, "geometry": { "type": "Point", "coordinates": [ 3.09347, 50.651963 ] } },
{ "type": "Feature", "properties": { "client_id": "CLI00164", "adresse": "Rue des Eaux 59700 Marcq-en-Barœul", "commune": "Marcq-en-Barœul", "code_postal": "59700", "longitude": 3.082985, "latitude": 50.656005, "frequence_achat": 10, "panier_moyen": 27.74, "mode_transport": "transport", "segment_theorique": 1 }, "geometry": { "type": "Point", "coordinates": [ 3.082985, 50.656005 ] } },
{ "type": "Feature", "properties": { "client_id": "CLI00165", "adresse": "Rue du Berry 59700 Marcq-en-Barœul", "commune": "Marcq-en-Barœul", "code_postal": "59700", "longitude": 3.104387, "latitude": 50.681595, "frequence_achat": 21, "panier_moyen": 45.3, "mode_transport": "marche", "segment_theorique": 1 }, "geometry": { "type": "Point", "coordinates": [ 3.104387, 50.681595 ] } },
{ "type": "Feature", "properties": { "client_id": "CLI00166", "adresse": "Rue Delcourt 59700 Marcq-en-Barœul", "commune": "Marcq-en-Barœul", "code_postal": "59700", "longitude": 3.073086, "latitude": 50.664917, "frequence_achat": 17, "panier_moyen": 43.96, "mode_transport": "velo", "segment_theorique": 1 }, "geometry": { "type": "Point", "coordinates": [ 3.073086, 50.664917 ] } },
{ "type": "Feature", "properties": { "client_id": "CLI00167", "adresse": "Rue de Paris 59700 Marcq-en-Barœul", "commune": "Marcq-en-Barœul", "code_postal": "59700", "longitude": 3.097221, "latitude": 50.652449, "frequence_achat": 10, "panier_moyen": 43.07, "mode_transport": "velo", "segment_theorique": 1 }, "geometry": { "type": "Point", "coordinates": [ 3.097221, 50.652449 ] } },
{ "type": "Feature", "properties": { "client_id": "CLI00168", "adresse": "Rue Magellan 59700 Marcq-en-Barœul", "commune": "Marcq-en-Barœul", "code_postal": "59700", "longitude": 3.082185, "latitude": 50.663729, "frequence_achat": 12, "panier_moyen": 47.57, "mode_transport": "velo", "segment_theorique": 1 }, "geometry": { "type": "Point", "coordinates": [ 3.082185, 50.663729 ] } },
{ "type": "Feature", "properties": { "client_id": "CLI00169", "adresse": "Rue Chuffart 59700 Marcq-en-Barœul", "commune": "Marcq-en-Barœul", "code_postal": "59700", "longitude": 3.090445, "latitude": 50.67546, "frequence_achat": 16, "panier_moyen": 28.4, "mode_transport": "transport", "segment_theorique": 1 }, "geometry": { "type": "Point", "coordinates": [ 3.090445, 50.67546 ] } },
{ "type": "Feature", "properties": { "client_id": "CLI00170", "adresse": "Rue Lequenne 59700 Marcq-en-Barœul", "commune": "Marcq-en-Barœul", "code_postal": "59700", "longitude": 3.092421, "latitude": 50.650717, "frequence_achat": 17, "panier_moyen": 26.73, "mode_transport": "transport", "segment_theorique": 1 }, "geometry": { "type": "Point", "coordinates": [ 3.092421, 50.650717 ] } },
{ "type": "Feature", "properties": { "client_id": "CLI00171", "adresse": "Rue Copernic 59700 Marcq-en-Barœul", "commune": "Marcq-en-Barœul", "code_postal": "59700", "longitude": 3.086087, "latitude": 50.658144, "frequence_achat": 12, "panier_moyen": 47.11, "mode_transport": "velo", "segment_theorique": 1 }, "geometry": { "type": "Point", "coordinates": [ 3.086087, 50.658144 ] } },
{ "type": "Feature", "properties": { "client_id": "CLI00172", "adresse": "Rue du Quesne 59700 Marcq-en-Barœul", "commune": "Marcq-en-Barœul", "code_postal": "59700", "longitude": 3.103187, "latitude": 50.673947, "frequence_achat": 18, "panier_moyen": 28.51, "mode_transport": "velo", "segment_theorique": 1 }, "geometry": { "type": "Point", "coordinates": [ 3.103187, 50.673947 ] } },
{ "type": "Feature", "properties": { "client_id": "CLI00173", "adresse": "Rue Canrobert 59700 Marcq-en-Barœul", "commune": "Marcq-en-Barœul", "code_postal": "59700", "longitude": 3.091596, "latitude": 50.653865, "frequence_achat": 17, "panier_moyen": 50.11, "mode_transport": "marche", "segment_theorique": 1 }, "geometry": { "type": "Point", "coordinates": [ 3.091596, 50.653865 ] } },
{ "type": "Feature", "properties": { "client_id": "CLI00174", "adresse": "Rue du Lazaro 59700 Marcq-en-Barœul", "commune": "Marcq-en-Barœul", "code_postal": "59700", "longitude": 3.086672, "latitude": 50.677783, "frequence_achat": 13, "panier_moyen": 27.52, "mode_transport": "transport", "segment_theorique": 1 }, "geometry": { "type": "Point", "coordinates": [ 3.086672, 50.677783 ] } },
{ "type": "Feature", "properties": { "client_id": "CLI00175", "adresse": "Rue Nationale 59700 Marcq-en-Barœul", "commune": "Marcq-en-Barœul", "code_postal": "59700", "longitude": 3.07573, "latitude": 50.665144, "frequence_achat": 17, "panier_moyen": 36.9, "mode_transport": "velo", "segment_theorique": 1 }, "geometry": { "type": "Point", "coordinates": [ 3.07573, 50.665144 ] } },
{ "type": "Feature", "properties": { "client_id": "CLI00176", "adresse": "Rue des Lilas 59700 Marcq-en-Barœul", "commune": "Marcq-en-Barœul", "code_postal": "59700", "longitude": 3.086337, "latitude": 50.680003, "frequence_achat": 9, "panier_moyen": 27.44, "mode_transport": "transport", "segment_theorique": 1 }, "geometry": { "type": "Point", "coordinates": [ 3.086337, 50.680003 ] } },
{ "type": "Feature", "properties": { "client_id": "CLI00177", "adresse": "Rue de Bolbec 59700 Marcq-en-Barœul", "commune": "Marcq-en-Barœul", "code_postal": "59700", "longitude": 3.080222, "latitude": 50.656935, "frequence_achat": 10, "panier_moyen": 42.44, "mode_transport": "marche", "segment_theorique": 1 }, "geometry": { "type": "Point", "coordinates": [ 3.080222, 50.656935 ] } },
{ "type": "Feature", "properties": { "client_id": "CLI00178", "adresse": "Rue d'Atlanta 59700 Marcq-en-Barœul", "commune": "Marcq-en-Barœul", "code_postal": "59700", "longitude": 3.099551, "latitude": 50.654984, "frequence_achat": 13, "panier_moyen": 49.38, "mode_transport": "transport", "segment_theorique": 1 }, "geometry": { "type": "Point", "coordinates": [ 3.099551, 50.654984 ] } },
{ "type": "Feature", "properties": { "client_id": "CLI00179", "adresse": "Rue Salembier 59700 Marcq-en-Barœul", "commune": "Marcq-en-Barœul", "code_postal": "59700", "longitude": 3.101955, "latitude": 50.659182, "frequence_achat": 16, "panier_moyen": 42.76, "mode_transport": "transport", "segment_theorique": 1 }, "geometry": { "type": "Point", "coordinates": [ 3.101955, 50.659182 ] } },
{ "type": "Feature", "properties": { "client_id": "CLI00180", "adresse": "Rue d'Orchies 59700 Marcq-en-Barœul", "commune": "Marcq-en-Barœul", "code_postal": "59700", "longitude": 3.092825, "latitude": 50.677322, "frequence_achat": 19, "panier_moyen": 27.51, "mode_transport": "marche", "segment_theorique": 1 }, "geometry": { "type": "Point", "coordinates": [ 3.092825, 50.677322 ] } },
{ "type": "Feature", "properties": { "client_id": "CLI00181", "adresse": "Rue de Lambersart 59350 Saint-André-lez-Lille", "commune": "Saint-André-lez-Lille", "code_postal": "59350", "longitude": 3.043991, "latitude": 50.659197, "frequence_achat": 13, "panier_moyen": 46.15, "mode_transport": "transport", "segment_theorique": 1 }, "geometry": { "type": "Point", "coordinates": [ 3.043991, 50.659197 ] } },
{ "type": "Feature", "properties": { "client_id": "CLI00182", "adresse": "Rue de Lambersart 59237 Verlinghem", "commune": "Verlinghem", "code_postal": "59237", "longitude": 3.000639, "latitude": 50.67504, "frequence_achat": 10, "panier_moyen": 28.34, "mode_transport": "marche", "segment_theorique": 1 }, "geometry": { "type": "Point", "coordinates": [ 3.000639, 50.67504 ] } },
{ "type": "Feature", "properties": { "client_id": "CLI00183", "adresse": "Rue Lalo 59130 Lambersart", "commune": "Lambersart", "code_postal": "59130", "longitude": 3.034948, "latitude": 50.657596, "frequence_achat": 20, "panier_moyen": 37.16, "mode_transport": "velo", "segment_theorique": 1 }, "geometry": { "type": "Point", "coordinates": [ 3.034948, 50.657596 ] } },
{ "type": "Feature", "properties": { "client_id": "CLI00184", "adresse": "Rue Volta 59130 Lambersart", "commune": "Lambersart", "code_postal": "59130", "longitude": 3.019043, "latitude": 50.644546, "frequence_achat": 11, "panier_moyen": 28.56, "mode_transport": "velo", "segment_theorique": 1 }, "geometry": { "type": "Point", "coordinates": [ 3.019043, 50.644546 ] } },
{ "type": "Feature", "properties": { "client_id": "CLI00185", "adresse": "Rue Roure 59130 Lambersart", "commune": "Lambersart", "code_postal": "59130", "longitude": 3.023958, "latitude": 50.640401, "frequence_achat": 16, "panier_moyen": 47.33, "mode_transport": "marche", "segment_theorique": 1 }, "geometry": { "type": "Point", "coordinates": [ 3.023958, 50.640401 ] } },
{ "type": "Feature", "properties": { "client_id": "CLI00186", "adresse": "Rue Nicot 59130 Lambersart", "commune": "Lambersart", "code_postal": "59130", "longitude": 3.03717, "latitude": 50.650852, "frequence_achat": 19, "panier_moyen": 53.87, "mode_transport": "velo", "segment_theorique": 1 }, "geometry": { "type": "Point", "coordinates": [ 3.03717, 50.650852 ] } },
{ "type": "Feature", "properties": { "client_id": "CLI00187", "adresse": "Rue Monge 59130 Lambersart", "commune": "Lambersart", "code_postal": "59130", "longitude": 3.018144, "latitude": 50.654105, "frequence_achat": 8, "panier_moyen": 27.49, "mode_transport": "marche", "segment_theorique": 1 }, "geometry": { "type": "Point", "coordinates": [ 3.018144, 50.654105 ] } },
{ "type": "Feature", "properties": { "client_id": "CLI00188", "adresse": "Rue Arago 59130 Lambersart", "commune": "Lambersart", "code_postal": "59130", "longitude": 3.015183, "latitude": 50.654393, "frequence_achat": 12, "panier_moyen": 53.9, "mode_transport": "velo", "segment_theorique": 1 }, "geometry": { "type": "Point", "coordinates": [ 3.015183, 50.654393 ] } },
{ "type": "Feature", "properties": { "client_id": "CLI00189", "adresse": "Rue Ampère 59130 Lambersart", "commune": "Lambersart", "code_postal": "59130", "longitude": 3.020489, "latitude": 50.641529, "frequence_achat": 23, "panier_moyen": 41.68, "mode_transport": "marche", "segment_theorique": 1 }, "geometry": { "type": "Point", "coordinates": [ 3.020489, 50.641529 ] } },
{ "type": "Feature", "properties": { "client_id": "CLI00190", "adresse": "Rue Kléber 59130 Lambersart", "commune": "Lambersart", "code_postal": "59130", "longitude": 3.03806, "latitude": 50.649012, "frequence_achat": 23, "panier_moyen": 40.83, "mode_transport": "marche", "segment_theorique": 1 }, "geometry": { "type": "Point", "coordinates": [ 3.03806, 50.649012 ] } },
{ "type": "Feature", "properties": { "client_id": "CLI00191", "adresse": "Rue Racine 59130 Lambersart", "commune": "Lambersart", "code_postal": "59130", "longitude": 3.028543, "latitude": 50.653962, "frequence_achat": 12, "panier_moyen": 32.59, "mode_transport": "transport", "segment_theorique": 1 }, "geometry": { "type": "Point", "coordinates": [ 3.028543, 50.653962 ] } },
{ "type": "Feature", "properties": { "client_id": "CLI00192", "adresse": "Rue Boileau 59130 Lambersart", "commune": "Lambersart", "code_postal": "59130", "longitude": 3.029154, "latitude": 50.653531, "frequence_achat": 16, "panier_moyen": 40.69, "mode_transport": "velo", "segment_theorique": 1 }, "geometry": { "type": "Point", "coordinates": [ 3.029154, 50.653531 ] } },
{ "type": "Feature", "properties": { "client_id": "CLI00193", "adresse": "Rue Vieille 59130 Lambersart", "commune": "Lambersart", "code_postal": "59130", "longitude": 3.012054, "latitude": 50.646845, "frequence_achat": 21, "panier_moyen": 33.83, "mode_transport": "velo", "segment_theorique": 1 }, "geometry": { "type": "Point", "coordinates": [ 3.012054, 50.646845 ] } },
{ "type": "Feature", "properties": { "client_id": "CLI00194", "adresse": "Rue de Rome 59130 Lambersart", "commune": "Lambersart", "code_postal": "59130", "longitude": 3.007877, "latitude": 50.651452, "frequence_achat": 13, "panier_moyen": 42.53, "mode_transport": "transport", "segment_theorique": 1 }, "geometry": { "type": "Point", "coordinates": [ 3.007877, 50.651452 ] } },
{ "type": "Feature", "properties": { "client_id": "CLI00195", "adresse": "Rue Breguet 59130 Lambersart", "commune": "Lambersart", "code_postal": "59130", "longitude": 3.02076, "latitude": 50.658548, "frequence_achat": 16, "panier_moyen": 52.46, "mode_transport": "transport", "segment_theorique": 1 }, "geometry": { "type": "Point", "coordinates": [ 3.02076, 50.658548 ] } },
{ "type": "Feature", "properties": { "client_id": "CLI00196", "adresse": "Rue Berlioz 59130 Lambersart", "commune": "Lambersart", "code_postal": "59130", "longitude": 3.032707, "latitude": 50.658347, "frequence_achat": 23, "panier_moyen": 51.71, "mode_transport": "transport", "segment_theorique": 1 }, "geometry": { "type": "Point", "coordinates": [ 3.032707, 50.658347 ] } },
{ "type": "Feature", "properties": { "client_id": "CLI00197", "adresse": "Rue Marlier 59130 Lambersart", "commune": "Lambersart", "code_postal": "59130", "longitude": 3.026712, "latitude": 50.652833, "frequence_achat": 19, "panier_moyen": 35.07, "mode_transport": "velo", "segment_theorique": 1 }, "geometry": { "type": "Point", "coordinates": [ 3.026712, 50.652833 ] } },
{ "type": "Feature", "properties": { "client_id": "CLI00198", "adresse": "Rue Molière 59130 Lambersart", "commune": "Lambersart", "code_postal": "59130", "longitude": 3.027948, "latitude": 50.655009, "frequence_achat": 11, "panier_moyen": 38.91, "mode_transport": "marche", "segment_theorique": 1 }, "geometry": { "type": "Point", "coordinates": [ 3.027948, 50.655009 ] } },
{ "type": "Feature", "properties": { "client_id": "CLI00199", "adresse": "Rue du Midi 59130 Lambersart", "commune": "Lambersart", "code_postal": "59130", "longitude": 3.021808, "latitude": 50.649703, "frequence_achat": 9, "panier_moyen": 32.98, "mode_transport": "marche", "segment_theorique": 1 }, "geometry": { "type": "Point", "coordinates": [ 3.021808, 50.649703 ] } },
{ "type": "Feature", "properties": { "client_id": "CLI00200", "adresse": "Rue du Nord 59130 Lambersart", "commune": "Lambersart", "code_postal": "59130", "longitude": 3.021891, "latitude": 50.649768, "frequence_achat": 11, "panier_moyen": 54.59, "mode_transport": "marche", "segment_theorique": 1 }, "geometry": { "type": "Point", "coordinates": [ 3.021891, 50.649768 ] } },
{ "type": "Feature", "properties": { "client_id": "CLI00201", "adresse": "Rue du Bourg 59130 Lambersart", "commune": "Lambersart", "code_postal": "59130", "longitude": 3.028838, "latitude": 50.652628, "frequence_achat": 8, "panier_moyen": 33.39, "mode_transport": "velo", "segment_theorique": 1 }, "geometry": { "type": "Point", "coordinates": [ 3.028838, 50.652628 ] } },
{ "type": "Feature", "properties": { "client_id": "CLI00202", "adresse": "Rue de Lille 59130 Lambersart", "commune": "Lambersart", "code_postal": "59130", "longitude": 3.040642, "latitude": 50.651122, "frequence_achat": 20, "panier_moyen": 45.54, "mode_transport": "velo", "segment_theorique": 1 }, "geometry": { "type": "Point", "coordinates": [ 3.040642, 50.651122 ] } },
{ "type": "Feature", "properties": { "client_id": "CLI00203", "adresse": "Rue Vaillant 59130 Lambersart", "commune": "Lambersart", "code_postal": "59130", "longitude": 3.021492, "latitude": 50.641364, "frequence_achat": 21, "panier_moyen": 27.29, "mode_transport": "marche", "segment_theorique": 1 }, "geometry": { "type": "Point", "coordinates": [ 3.021492, 50.641364 ] } },
{ "type": "Feature", "properties": { "client_id": "CLI00204", "adresse": "Rue Massenet 59130 Lambersart", "commune": "Lambersart", "code_postal": "59130", "longitude": 3.034621, "latitude": 50.659323, "frequence_achat": 10, "panier_moyen": 46.77, "mode_transport": "transport", "segment_theorique": 1 }, "geometry": { "type": "Point", "coordinates": [ 3.034621, 50.659323 ] } },
{ "type": "Feature", "properties": { "client_id": "CLI00205", "adresse": "Rue de Paris 59130 Lambersart", "commune": "Lambersart", "code_postal": "59130", "longitude": 3.004389, "latitude": 50.652402, "frequence_achat": 9, "panier_moyen": 27.48, "mode_transport": "velo", "segment_theorique": 1 }, "geometry": { "type": "Point", "coordinates": [ 3.004389, 50.652402 ] } },
{ "type": "Feature", "properties": { "client_id": "CLI00206", "adresse": "Rue Gambetta 59130 Lambersart", "commune": "Lambersart", "code_postal": "59130", "longitude": 3.038982, "latitude": 50.648638, "frequence_achat": 18, "panier_moyen": 26.36, "mode_transport": "transport", "segment_theorique": 1 }, "geometry": { "type": "Point", "coordinates": [ 3.038982, 50.648638 ] } },
{ "type": "Feature", "properties": { "client_id": "CLI00207", "adresse": "Rue des Prés 59130 Lambersart", "commune": "Lambersart", "code_postal": "59130", "longitude": 3.044899, "latitude": 50.650935, "frequence_achat": 8, "panier_moyen": 48.33, "mode_transport": "marche", "segment_theorique": 1 }, "geometry": { "type": "Point", "coordinates": [ 3.044899, 50.650935 ] } },
{ "type": "Feature", "properties": { "client_id": "CLI00208", "adresse": "Rue Lavoisier 59130 Lambersart", "commune": "Lambersart", "code_postal": "59130", "longitude": 3.024061, "latitude": 50.643615, "frequence_achat": 22, "panier_moyen": 29.51, "mode_transport": "velo", "segment_theorique": 1 }, "geometry": { "type": "Point", "coordinates": [ 3.024061, 50.643615 ] } },
{ "type": "Feature", "properties": { "client_id": "CLI00209", "adresse": "Rue de Madrid 59130 Lambersart", "commune": "Lambersart", "code_postal": "59130", "longitude": 3.00567, "latitude": 50.650996, "frequence_achat": 22, "panier_moyen": 36.79, "mode_transport": "velo", "segment_theorique": 1 }, "geometry": { "type": "Point", "coordinates": [ 3.00567, 50.650996 ] } },
{ "type": "Feature", "properties": { "client_id": "CLI00210", "adresse": "Rue Nungesser 59130 Lambersart", "commune": "Lambersart", "code_postal": "59130", "longitude": 3.021704, "latitude": 50.658876, "frequence_achat": 8, "panier_moyen": 50.15, "mode_transport": "transport", "segment_theorique": 1 }, "geometry": { "type": "Point", "coordinates": [ 3.021704, 50.658876 ] } },
{ "type": "Feature", "properties": { "client_id": "CLI00211", "adresse": "Rue Champêtre 59130 Lambersart", "commune": "Lambersart", "code_postal": "59130", "longitude": 3.024865, "latitude": 50.641194, "frequence_achat": 10, "panier_moyen": 29.02, "mode_transport": "velo", "segment_theorique": 1 }, "geometry": { "type": "Point", "coordinates": [ 3.024865, 50.641194 ] } },
{ "type": "Feature", "properties": { "client_id": "CLI00212", "adresse": "Rue de Lompret 59130 Lambersart", "commune": "Lambersart", "code_postal": "59130", "longitude": 3.013723, "latitude": 50.654077, "frequence_achat": 14, "panier_moyen": 50.94, "mode_transport": "marche", "segment_theorique": 1 }, "geometry": { "type": "Point", "coordinates": [ 3.013723, 50.654077 ] } },
{ "type": "Feature", "properties": { "client_id": "CLI00213", "adresse": "Rue Gay Lussac 59130 Lambersart", "commune": "Lambersart", "code_postal": "59130", "longitude": 3.015698, "latitude": 50.654224, "frequence_achat": 22, "panier_moyen": 47.5, "mode_transport": "transport", "segment_theorique": 1 }, "geometry": { "type": "Point", "coordinates": [ 3.015698, 50.654224 ] } },
{ "type": "Feature", "properties": { "client_id": "CLI00214", "adresse": "Rue de Lisieux 59130 Lambersart", "commune": "Lambersart", "code_postal": "59130", "longitude": 3.034433, "latitude": 50.650225, "frequence_achat": 14, "panier_moyen": 48.07, "mode_transport": "transport", "segment_theorique": 1 }, "geometry": { "type": "Point", "coordinates": [ 3.034433, 50.650225 ] } },
{ "type": "Feature", "properties": { "client_id": "CLI00215", "adresse": "Rue des Champs 59130 Lambersart", "commune": "Lambersart", "code_postal": "59130", "longitude": 3.021963, "latitude": 50.657745, "frequence_achat": 17, "panier_moyen": 36.34, "mode_transport": "transport", "segment_theorique": 1 }, "geometry": { "type": "Point", "coordinates": [ 3.021963, 50.657745 ] } },
{ "type": "Feature", "properties": { "client_id": "CLI00216", "adresse": "Rue Jean Talmy 59130 Lambersart", "commune": "Lambersart", "code_postal": "59130", "longitude": 3.017973, "latitude": 50.651789, "frequence_achat": 16, "panier_moyen": 28.87, "mode_transport": "marche", "segment_theorique": 1 }, "geometry": { "type": "Point", "coordinates": [ 3.017973, 50.651789 ] } },
{ "type": "Feature", "properties": { "client_id": "CLI00217", "adresse": "Rue d'Hellemmes 62210 Avion", "commune": "Avion", "code_postal": "62210", "longitude": 2.833685, "latitude": 50.404784, "frequence_achat": 20, "panier_moyen": 31.22, "mode_transport": "transport", "segment_theorique": 1 }, "geometry": { "type": "Point", "coordinates": [ 2.833685, 50.404784 ] } },
{ "type": "Feature", "properties": { "client_id": "CLI00218", "adresse": "Rue d'Hellemmes 59155 Faches-Thumesnil", "commune": "Faches-Thumesnil", "code_postal": "59155", "longitude": 3.076834, "latitude": 50.595201, "frequence_achat": 15, "panier_moyen": 43.54, "mode_transport": "transport", "segment_theorique": 1 }, "geometry": { "type": "Point", "coordinates": [ 3.076834, 50.595201 ] } },
{ "type": "Feature", "properties": { "client_id": "CLI00219", "adresse": "Rue Chanzy (Hellemmes) 59260 Lille", "commune": "Lille", "code_postal": "59260", "longitude": 3.10124, "latitude": 50.625224, "frequence_achat": 15, "panier_moyen": 25.67, "mode_transport": "marche", "segment_theorique": 1 }, "geometry": { "type": "Point", "coordinates": [ 3.10124, 50.625224 ] } },
{ "type": "Feature", "properties": { "client_id": "CLI00220", "adresse": "Rue Kléber 59260 Lille", "commune": "Lille", "code_postal": "59260", "longitude": 3.113661, "latitude": 50.627055, "frequence_achat": 13, "panier_moyen": 48.17, "mode_transport": "velo", "segment_theorique": 1 }, "geometry": { "type": "Point", "coordinates": [ 3.113661, 50.627055 ] } },
{ "type": "Feature", "properties": { "client_id": "CLI00221", "adresse": "Rue Dordin 59260 Lille", "commune": "Lille", "code_postal": "59260", "longitude": 3.099937, "latitude": 50.626517, "frequence_achat": 19, "panier_moyen": 49.49, "mode_transport": "velo", "segment_theorique": 1 }, "geometry": { "type": "Point", "coordinates": [ 3.099937, 50.626517 ] } },
{ "type": "Feature", "properties": { "client_id": "CLI00222", "adresse": "Rue Ferrer 59260 Lille", "commune": "Lille", "code_postal": "59260", "longitude": 3.099554, "latitude": 50.624209, "frequence_achat": 21, "panier_moyen": 51.3, "mode_transport": "transport", "segment_theorique": 1 }, "geometry": { "type": "Point", "coordinates": [ 3.099554, 50.624209 ] } },
{ "type": "Feature", "properties": { "client_id": "CLI00223", "adresse": "Rue Turgot (Hellemmes) 59260 Lille", "commune": "Lille", "code_postal": "59260", "longitude": 3.110555, "latitude": 50.624489, "frequence_achat": 23, "panier_moyen": 39.4, "mode_transport": "velo", "segment_theorique": 1 }, "geometry": { "type": "Point", "coordinates": [ 3.110555, 50.624489 ] } },
{ "type": "Feature", "properties": { "client_id": "CLI00224", "adresse": "Rue Dubois 59260 Lille", "commune": "Lille", "code_postal": "59260", "longitude": 3.101657, "latitude": 50.619621, "frequence_achat": 12, "panier_moyen": 43.61, "mode_transport": "velo", "segment_theorique": 1 }, "geometry": { "type": "Point", "coordinates": [ 3.101657, 50.619621 ] } },
{ "type": "Feature", "properties": { "client_id": "CLI00225", "adresse": "Rue Fénelon (Hellemmes) 59260 Lille", "commune": "Lille", "code_postal": "59260", "longitude": 3.108179, "latitude": 50.631171, "frequence_achat": 10, "panier_moyen": 52.09, "mode_transport": "velo", "segment_theorique": 1 }, "geometry": { "type": "Point", "coordinates": [ 3.108179, 50.631171 ] } },
{ "type": "Feature", "properties": { "client_id": "CLI00226", "adresse": "Rue Raspail (Hellemmes) 59260 Lille", "commune": "Lille", "code_postal": "59260", "longitude": 3.1138, "latitude": 50.628521, "frequence_achat": 9, "panier_moyen": 35.52, "mode_transport": "velo", "segment_theorique": 1 }, "geometry": { "type": "Point", "coordinates": [ 3.1138, 50.628521 ] } },
{ "type": "Feature", "properties": { "client_id": "CLI00227", "adresse": "Rue Marceau (Hellemmes) 59260 Lille", "commune": "Lille", "code_postal": "59260", "longitude": 3.109923, "latitude": 50.624972, "frequence_achat": 21, "panier_moyen": 41.64, "mode_transport": "velo", "segment_theorique": 1 }, "geometry": { "type": "Point", "coordinates": [ 3.109923, 50.624972 ] } },
{ "type": "Feature", "properties": { "client_id": "CLI00228", "adresse": "Rue Dupleix (Hellemmes) 59260 Lille", "commune": "Lille", "code_postal": "59260", "longitude": 3.09632, "latitude": 50.627513, "frequence_achat": 9, "panier_moyen": 35.45, "mode_transport": "marche", "segment_theorique": 1 }, "geometry": { "type": "Point", "coordinates": [ 3.09632, 50.627513 ] } },
{ "type": "Feature", "properties": { "client_id": "CLI00229", "adresse": "Rue Pasteur (Hellemmes) 59260 Lille", "commune": "Lille", "code_postal": "59260", "longitude": 3.111278, "latitude": 50.626846, "frequence_achat": 15, "panier_moyen": 52.31, "mode_transport": "velo", "segment_theorique": 1 }, "geometry": { "type": "Point", "coordinates": [ 3.111278, 50.626846 ] } },
{ "type": "Feature", "properties": { "client_id": "CLI00230", "adresse": "Rue Blériot 59260 Lille", "commune": "Lille", "code_postal": "59260", "longitude": 3.103564, "latitude": 50.634742, "frequence_achat": 17, "panier_moyen": 50.87, "mode_transport": "marche", "segment_theorique": 1 }, "geometry": { "type": "Point", "coordinates": [ 3.103564, 50.634742 ] } },
{ "type": "Feature", "properties": { "client_id": "CLI00231", "adresse": "Rue Jacquard 59260 Lille", "commune": "Lille", "code_postal": "59260", "longitude": 3.108197, "latitude": 50.634641, "frequence_achat": 11, "panier_moyen": 38.78, "mode_transport": "transport", "segment_theorique": 1 }, "geometry": { "type": "Point", "coordinates": [ 3.108197, 50.634641 ] } },
{ "type": "Feature", "properties": { "client_id": "CLI00232", "adresse": "Rue Testelin 59260 Lille", "commune": "Lille", "code_postal": "59260", "longitude": 3.113838, "latitude": 50.628313, "frequence_achat": 8, "panier_moyen": 32.75, "mode_transport": "transport", "segment_theorique": 1 }, "geometry": { "type": "Point", "coordinates": [ 3.113838, 50.628313 ] } },
{ "type": "Feature", "properties": { "client_id": "CLI00233", "adresse": "Rue Voltaire (Hellemmes) 59260 Lille", "commune": "Lille", "code_postal": "59260", "longitude": 3.112411, "latitude": 50.625016, "frequence_achat": 9, "panier_moyen": 43.62, "mode_transport": "velo", "segment_theorique": 1 }, "geometry": { "type": "Point", "coordinates": [ 3.112411, 50.625016 ] } },
{ "type": "Feature", "properties": { "client_id": "CLI00234", "adresse": "Rue Vanacker 59260 Lille", "commune": "Lille", "code_postal": "59260", "longitude": 3.096879, "latitude": 50.621909, "frequence_achat": 21, "panier_moyen": 44.0, "mode_transport": "marche", "segment_theorique": 1 }, "geometry": { "type": "Point", "coordinates": [ 3.096879, 50.621909 ] } },
{ "type": "Feature", "properties": { "client_id": "CLI00235", "adresse": "Rue Bobillot (Hellemmes) 59260 Lille", "commune": "Lille", "code_postal": "59260", "longitude": 3.114293, "latitude": 50.621885, "frequence_achat": 10, "panier_moyen": 41.12, "mode_transport": "marche", "segment_theorique": 1 }, "geometry": { "type": "Point", "coordinates": [ 3.114293, 50.621885 ] } },
{ "type": "Feature", "properties": { "client_id": "CLI00236", "adresse": "Rue Faidherbe (Hellemmes) 59260 Lille", "commune": "Lille", "code_postal": "59260", "longitude": 3.112482, "latitude": 50.630176, "frequence_achat": 23, "panier_moyen": 29.56, "mode_transport": "velo", "segment_theorique": 1 }, "geometry": { "type": "Point", "coordinates": [ 3.112482, 50.630176 ] } },
{ "type": "Feature", "properties": { "client_id": "CLI00237", "adresse": "Rue Jean Bart (Hellemmes) 59260 Lille", "commune": "Lille", "code_postal": "59260", "longitude": 3.103741, "latitude": 50.627567, "frequence_achat": 15, "panier_moyen": 30.4, "mode_transport": "marche", "segment_theorique": 1 }, "geometry": { "type": "Point", "coordinates": [ 3.103741, 50.627567 ] } },
{ "type": "Feature", "properties": { "client_id": "CLI00238", "adresse": "Rue Lamartine (Hellemmes) 59260 Lille", "commune": "Lille", "code_postal": "59260", "longitude": 3.105981, "latitude": 50.630942, "frequence_achat": 16, "panier_moyen": 51.9, "mode_transport": "velo", "segment_theorique": 1 }, "geometry": { "type": "Point", "coordinates": [ 3.105981, 50.630942 ] } },
{ "type": "Feature", "properties": { "client_id": "CLI00239", "adresse": "Rue Salembier 59260 Lille", "commune": "Lille", "code_postal": "59260", "longitude": 3.111288, "latitude": 50.625585, "frequence_achat": 20, "panier_moyen": 54.19, "mode_transport": "velo", "segment_theorique": 1 }, "geometry": { "type": "Point", "coordinates": [ 3.111288, 50.625585 ] } },
{ "type": "Feature", "properties": { "client_id": "CLI00240", "adresse": "Rue Basselart 59260 Lille", "commune": "Lille", "code_postal": "59260", "longitude": 3.106919, "latitude": 50.625714, "frequence_achat": 10, "panier_moyen": 26.23, "mode_transport": "velo", "segment_theorique": 1 }, "geometry": { "type": "Point", "coordinates": [ 3.106919, 50.625714 ] } },
{ "type": "Feature", "properties": { "client_id": "CLI00241", "adresse": "Rue Paul Bert (Hellemmes) 59260 Lille", "commune": "Lille", "code_postal": "59260", "longitude": 3.110861, "latitude": 50.624975, "frequence_achat": 19, "panier_moyen": 35.43, "mode_transport": "marche", "segment_theorique": 1 }, "geometry": { "type": "Point", "coordinates": [ 3.110861, 50.624975 ] } },
{ "type": "Feature", "properties": { "client_id": "CLI00242", "adresse": "Rue Delesalle 59260 Lille", "commune": "Lille", "code_postal": "59260", "longitude": 3.103361, "latitude": 50.629699, "frequence_achat": 13, "panier_moyen": 28.62, "mode_transport": "marche", "segment_theorique": 1 }, "geometry": { "type": "Point", "coordinates": [ 3.103361, 50.629699 ] } },
{ "type": "Feature", "properties": { "client_id": "CLI00243", "adresse": "Rue Paul Kimpe 59260 Lille", "commune": "Lille", "code_postal": "59260", "longitude": 3.100895, "latitude": 50.619247, "frequence_achat": 17, "panier_moyen": 51.83, "mode_transport": "velo", "segment_theorique": 1 }, "geometry": { "type": "Point", "coordinates": [ 3.100895, 50.619247 ] } },
{ "type": "Feature", "properties": { "client_id": "CLI00244", "adresse": "Rue des Ecoles (Hellemmes) 59260 Lille", "commune": "Lille", "code_postal": "59260", "longitude": 3.100986, "latitude": 50.623865, "frequence_achat": 17, "panier_moyen": 45.71, "mode_transport": "marche", "segment_theorique": 1 }, "geometry": { "type": "Point", "coordinates": [ 3.100986, 50.623865 ] } },
{ "type": "Feature", "properties": { "client_id": "CLI00245", "adresse": "Rue Emile Zola (Hellemmes) 59260 Lille", "commune": "Lille", "code_postal": "59260", "longitude": 3.113301, "latitude": 50.634605, "frequence_achat": 16, "panier_moyen": 39.43, "mode_transport": "marche", "segment_theorique": 1 }, "geometry": { "type": "Point", "coordinates": [ 3.113301, 50.634605 ] } },
{ "type": "Feature", "properties": { "client_id": "CLI00246", "adresse": "Rue du Progrés 59260 Lille", "commune": "Lille", "code_postal": "59260", "longitude": 3.117413, "latitude": 50.629568, "frequence_achat": 15, "panier_moyen": 51.21, "mode_transport": "velo", "segment_theorique": 1 }, "geometry": { "type": "Point", "coordinates": [ 3.117413, 50.629568 ] } },
{ "type": "Feature", "properties": { "client_id": "CLI00247", "adresse": "Rue Delemazure 59260 Lille", "commune": "Lille", "code_postal": "59260", "longitude": 3.108424, "latitude": 50.628575, "frequence_achat": 20, "panier_moyen": 25.08, "mode_transport": "transport", "segment_theorique": 1 }, "geometry": { "type": "Point", "coordinates": [ 3.108424, 50.628575 ] } },
{ "type": "Feature", "properties": { "client_id": "CLI00248", "adresse": "Rue Victor Hugo (Hellemmes) 59260 Lille", "commune": "Lille", "code_postal": "59260", "longitude": 3.09534, "latitude": 50.621122, "frequence_achat": 15, "panier_moyen": 47.45, "mode_transport": "transport", "segment_theorique": 1 }, "geometry": { "type": "Point", "coordinates": [ 3.09534, 50.621122 ] } },
{ "type": "Feature", "properties": { "client_id": "CLI00249", "adresse": "Rue Jules Ferry 59260 Lille", "commune": "Lille", "code_postal": "59260", "longitude": 3.099321, "latitude": 50.623389, "frequence_achat": 22, "panier_moyen": 41.1, "mode_transport": "marche", "segment_theorique": 1 }, "geometry": { "type": "Point", "coordinates": [ 3.099321, 50.623389 ] } },
{ "type": "Feature", "properties": { "client_id": "CLI00250", "adresse": "Rue Louis Blanc (Hellemmes) 59260 Lille", "commune": "Lille", "code_postal": "59260", "longitude": 3.094948, "latitude": 50.623101, "frequence_achat": 21, "panier_moyen": 43.55, "mode_transport": "transport", "segment_theorique": 1 }, "geometry": { "type": "Point", "coordinates": [ 3.094948, 50.623101 ] } },
{ "type": "Feature", "properties": { "client_id": "CLI00251", "adresse": "Rue Tribourdeau 59260 Lille", "commune": "Lille", "code_postal": "59260", "longitude": 3.113749, "latitude": 50.627326, "frequence_achat": 15, "panier_moyen": 46.62, "mode_transport": "marche", "segment_theorique": 1 }, "geometry": { "type": "Point", "coordinates": [ 3.113749, 50.627326 ] } },
{ "type": "Feature", "properties": { "client_id": "CLI00252", "adresse": "Rue Jean Jaurés (Hellemmes) 59260 Lille", "commune": "Lille", "code_postal": "59260", "longitude": 3.106739, "latitude": 50.624872, "frequence_achat": 18, "panier_moyen": 32.57, "mode_transport": "marche", "segment_theorique": 1 }, "geometry": { "type": "Point", "coordinates": [ 3.106739, 50.624872 ] } },
{ "type": "Feature", "properties": { "client_id": "CLI00253", "adresse": "Rue Lome 62111 Foncquevillers", "commune": "Foncquevillers", "code_postal": "62111", "longitude": 2.628932, "latitude": 50.144069, "frequence_achat": 22, "panier_moyen": 50.33, "mode_transport": "velo", "segment_theorique": 1 }, "geometry": { "type": "Point", "coordinates": [ 2.628932, 50.144069 ] } },
{ "type": "Feature", "properties": { "client_id": "CLI00254", "adresse": "Rue de Lomme 62100 Calais", "commune": "Calais", "code_postal": "62100", "longitude": 1.831207, "latitude": 50.948606, "frequence_achat": 19, "panier_moyen": 28.22, "mode_transport": "velo", "segment_theorique": 1 }, "geometry": { "type": "Point", "coordinates": [ 1.831207, 50.948606 ] } },
{ "type": "Feature", "properties": { "client_id": "CLI00255", "adresse": "Rue de Lomme 59840 Pérenchies", "commune": "Pérenchies", "code_postal": "59840", "longitude": 2.976251, "latitude": 50.66129, "frequence_achat": 10, "panier_moyen": 36.91, "mode_transport": "velo", "segment_theorique": 1 }, "geometry": { "type": "Point", "coordinates": [ 2.976251, 50.66129 ] } },
{ "type": "Feature", "properties": { "client_id": "CLI00256", "adresse": "Rue de Lomme 59210 Coudekerque-Branche", "commune": "Coudekerque-Branche", "code_postal": "59210", "longitude": 2.402103, "latitude": 51.032697, "frequence_achat": 14, "panier_moyen": 36.32, "mode_transport": "marche", "segment_theorique": 1 }, "geometry": { "type": "Point", "coordinates": [ 2.402103, 51.032697 ] } },
{ "type": "Feature", "properties": { "client_id": "CLI00257", "adresse": "Rue Lhomme 94100 Saint-Maur-des-Fossés", "commune": "Saint-Maur-des-Fossés", "code_postal": "94100", "longitude": 2.4954, "latitude": 48.80913, "frequence_achat": 16, "panier_moyen": 50.22, "mode_transport": "marche", "segment_theorique": 1 }, "geometry": { "type": "Point", "coordinates": [ 2.4954, 48.80913 ] } },
{ "type": "Feature", "properties": { "client_id": "CLI00258", "adresse": "Rue Ley 59160 Lille", "commune": "Lille", "code_postal": "59160", "longitude": 2.992287, "latitude": 50.643712, "frequence_achat": 21, "panier_moyen": 28.59, "mode_transport": "marche", "segment_theorique": 1 }, "geometry": { "type": "Point", "coordinates": [ 2.992287, 50.643712 ] } },
{ "type": "Feature", "properties": { "client_id": "CLI00259", "adresse": "Rue de Lomé 27000 Évreux", "commune": "Évreux", "code_postal": "27000", "longitude": 1.181117, "latitude": 49.035127, "frequence_achat": 11, "panier_moyen": 39.22, "mode_transport": "transport", "segment_theorique": 1 }, "geometry": { "type": "Point", "coordinates": [ 1.181117, 49.035127 ] } },
{ "type": "Feature", "properties": { "client_id": "CLI00260", "adresse": "Rue Neuve (Lomme) 59160 Lille", "commune": "Lille", "code_postal": "59160", "longitude": 3.017588, "latitude": 50.639453, "frequence_achat": 16, "panier_moyen": 39.95, "mode_transport": "marche", "segment_theorique": 1 }, "geometry": { "type": "Point", "coordinates": [ 3.017588, 50.639453 ] } },
{ "type": "Feature", "properties": { "client_id": "CLI00261", "adresse": "Rue Rogez 59160 Lille", "commune": "Lille", "code_postal": "59160", "longitude": 2.986601, "latitude": 50.637464, "frequence_achat": 22, "panier_moyen": 47.1, "mode_transport": "marche", "segment_theorique": 1 }, "geometry": { "type": "Point", "coordinates": [ 2.986601, 50.637464 ] } },
{ "type": "Feature", "properties": { "client_id": "CLI00262", "adresse": "Rue Hegel (Lomme) 59160 Lille", "commune": "Lille", "code_postal": "59160", "longitude": 3.018636, "latitude": 50.62938, "frequence_achat": 15, "panier_moyen": 37.95, "mode_transport": "velo", "segment_theorique": 1 }, "geometry": { "type": "Point", "coordinates": [ 3.018636, 50.62938 ] } },
{ "type": "Feature", "properties": { "client_id": "CLI00263", "adresse": "Rue Saget 59160 Lille", "commune": "Lille", "code_postal": "59160", "longitude": 2.9914, "latitude": 50.639227, "frequence_achat": 16, "panier_moyen": 35.12, "mode_transport": "marche", "segment_theorique": 1 }, "geometry": { "type": "Point", "coordinates": [ 2.9914, 50.639227 ] } },
{ "type": "Feature", "properties": { "client_id": "CLI00264", "adresse": "Rue Becker 59160 Lille", "commune": "Lille", "code_postal": "59160", "longitude": 3.018538, "latitude": 50.638445, "frequence_achat": 23, "panier_moyen": 42.12, "mode_transport": "transport", "segment_theorique": 1 }, "geometry": { "type": "Point", "coordinates": [ 3.018538, 50.638445 ] } },
{ "type": "Feature", "properties": { "client_id": "CLI00265", "adresse": "Rue de Lomes 07610 Sécheras", "commune": "Sécheras", "code_postal": "07610", "longitude": 4.772523, "latitude": 45.128432, "frequence_achat": 20, "panier_moyen": 34.91, "mode_transport": "marche", "segment_theorique": 1 }, "geometry": { "type": "Point", "coordinates": [ 4.772523, 45.128432 ] } },
{ "type": "Feature", "properties": { "client_id": "CLI00266", "adresse": "Rue Lassus 59160 Lille", "commune": "Lille", "code_postal": "59160", "longitude": 3.00484, "latitude": 50.646387, "frequence_achat": 12, "panier_moyen": 28.05, "mode_transport": "transport", "segment_theorique": 1 }, "geometry": { "type": "Point", "coordinates": [ 3.00484, 50.646387 ] } },